Hospital ID,Hospital Name,Legal Name,Alternate Name,Hospital Type,Institution Name,Street Address,City,State,Zip Code,Phone Number,Latitude,Longitude,Locale Code (NCES),County Code (FIPS),State Code (FIPS),Region Code (AAM),Employer ID Number,Tax Period,Income,Revenue
5793230,CENTRAL VALLEY GENERAL HOSPITAL,102ND INFANTRY REGIMENT MUSEUM INC,,GENERAL ACUTE CARE,,30 HOOD TERRACE,HANFORD,CA,6516,2037846851,36.33615885,-119.6456673,2,,9,1,61354580,201312,0,0
53391362,LOS ROBLES HOSPITAL & MEDICAL CENTER - EAST CAMPUS,ACADEMY HALL MUSEUM,,GENERAL ACUTE CARE,,785 OLD MAIN STREET,WESTLAKE VILAGE,CA,6067,8605636704,34.15493887,-118.8157364,2,3,9,1,,,,
11190023,EAST LOS ANGELES DOCTORS HOSPITAL,AKUS GALLERY,,GENERAL ACUTE CARE,EASTERN CONNECTICUT STATE UNIVERSITY,83 WINDHAM STREET,LOS ANGELES,CA,6226,8604654659,34.0236473,-118.1841648,3,15,9,1,61277820,,,
17090028,SOUTHERN CALIFORNIA HOSPITAL AT HOLLYWOOD,THE ALDRICH CONTEMPORARY PSYCHIATRIC INC,,GENERAL ACUTE CARE,,258 MAIN ST,HOLLYWOOD,CA,6877,2034384519,34.09639136,-118.3252349,2,1,9,1,66069965,201312,18497618,739083
23691706,KINDRED HOSPITAL BALDWIN PARK,HORSE-DRAWN CARRIAGE AND SLEIGH MUSEUM OF NEW ENGLAND INC,,GENERAL ACUTE CARE,,PO BOX 455,BALDWIN PARK,CA,6423,8605378861,34.06303893,-117.9674378,3,11,9,1,311613002,201412,0,0
25190712,LAKEWOOD REGIONAL MEDICAL CENTER,FRIENDS OF AMBLER FARM INC,,GENERAL ACUTE CARE,,PO BOX 7442,LAKEWOOD,CA,6897,2038341143,33.85970662,-118.148403,2,1,9,1,201660209,201306,386780,348206
30791016,MONROVIA MEMORIAL HOSPITAL,AMERICAN CLOCK & WATCH MUSEUM INC,AMERICAN CLOCK AND WATCH MUSEUM,GENERAL ACUTE CARE,,100 MAPLE ST,MONROVIA,CA,6010,8605836070,34.14875866,-117.9926677,2,3,9,1,66006559,201312,480120,236756
30891754,MONTEREY PARK HOSPITAL,AMERICAN MURAL PROJECT INC,,GENERAL ACUTE CARE,,173 LOW RD,MONTEREY PARK,CA,6069,8603793006,34.04946606,-118.1382622,4,5,9,1,263993911,201312,210367,210367
47090505,STAR VIEW ADOLESCENT - P H F,AMERICAN MUSEUM OF AVIATION INC,,PSYCHIATRIC,,21 CLEARVIEW DR,TORRANCE,CA,6076,8602083095,33.82391446,-118.3560969,3,13,9,1,311627202,201312,20225,17841
9092879,CORONA REGIONAL MEDICAL CENTER-MAGNOLIA,AMERICAN MUSEUM OF INDUSTRY & TECHNOLOGY INC,,GENERAL ACUTE CARE,,PO BOX 1997,CORONA,CA,6039,,33.85808331,-117.553858,4,5,9,1,311737150,201312,48628,
30696101,MODOC MEDICAL CENTER,AMERICAN MUSEUM OF MODERN,,GENERAL ACUTE CARE,,247 MOUNTAIN RD,ALTURAS,CA,6029,,41.48005626,-120.545744,2,13,9,1,61397012,,,
38593901,SALINAS VALLEY MEMORIAL HOSPITAL,AMERICAN MUSEUM TORT LAW INC,,GENERAL ACUTE CARE,,97 MAIN STREET,SALINAS,CA,6098,8607383138,36.65903046,-121.6459838,3,5,9,1,61529225,201312,83442,83442
12678414,CORPUS CHRISTI SPECIALTY HOSPITAL,AMERICAN RADIO RELAY LEAGUE,,GENERAL ACUTE CARE,,225 MAIN ST.,CORPUS CHRISTI,TX,6111,,27.77851017,-97.39620831,2,3,9,1,,,,
15992866,HEALTHBRIDGE CHILDREN'S HOSPITAL-ORANGE,AMERICAN SCHOOL FOR THE DEAF MUSEUM & ARCHIVES,,CHILDREN,,139 N. MAIN ST.,ORANGE,CA,6107,,33.78272717,-117.8338919,1,3,9,1,,,,
16192680,HEALTHSOUTH TUSTIN REHABILITATION HOSPITAL,AMERICAN SILVER MUSEUM INC,,GENERAL ACUTE CARE,,39 W MAIN ST,TUSTIN,CA,6451,2036303737,33.74746074,-117.8310556,2,9,9,1,61166092,,,
23792621,KINDRED HOSPITAL BREA,ANTIQUE CARRIAGE AND SLEIGH MUSEUM INC,,GENERAL ACUTE CARE,,509 NEW LONDON ROAD,BREA,CA,6420,,33.93449589,-117.8939488,2,11,9,1,800685596,,,
24392683,KINDRED HOSPITAL WESTMINSTER,ART GALLERIES,,GENERAL ACUTE CARE,CENTRAL CONNECTICUT STATE UNIVERSITY,1615 STANLEY STREET,WESTMINSTER,CA,6050,8608322633,33.76353321,-117.995256,2,3,9,1,61303381,,,
22093277,KAWEAH DELTA MENTAL HEALTH HOSPITAL D/P APH,ART GALLERY,,GENERAL ACUTE CARE,UNIVERSITY OF CONNECTICUT-TRI-CAMPUS,ONE UNIVERSITY PLACE,VISALIA,CA,6901,,36.32084395,-119.3482345,1,1,9,1,60772160,,,
1931537,CHARLTON MEMORIAL HOSPITAL,UNIVERSITY OF SAINT JOSEPH,,GENERAL ACUTE CARE,SAINT JOSEPH COLLEGE,1678 ASYLUM AVENUE,FOLKSTON,GA,6117,,30.84527535,-82.00505739,1,3,9,1,60646829,201306,76183269,69197073
5870563,DAUTERIVE HOSPITAL,AVERY-COPP MUSEUM INC,,GENERAL ACUTE CARE,,154 THAMES ST,NEW IBERIA,LA,6340,,30.00690698,-91.79452385,2,11,9,1,208096779,201312,671012,461649
13177954,CROCKETT MEDICAL CENTER,BALLARD INSTITUTE & MUSEUM OF PUPPETRY,,GENERAL ACUTE CARE,,1 ROYCE CIR.,CROCKETT,TX,6269,,31.32360364,-95.43889931,4,13,9,1,,,,
4671360,CENTRAL LOUISIANA STATE HOSPITAL,BARKER CHARACTER COMIC AND CARTOON MUSEUM,,PSYCHIATRIC,,1188 HIGHLAND AVE,PINEVILLE,LA,6410,2036993822,31.32737894,-92.44013511,2,9,9,1,,,,
15671222,REEVES MEMORIAL MEDICAL CENTER,BARNES FOUNDATION,,GENERAL ACUTE CARE,,85 N MAIN ST,BERNICE,LA,6489,8606285426,32.82399167,-92.65664868,1,101,42,2,236000149,201312,31510061,17595753
16971241,SERENITY SPRINGS SPECIALTY HOSPITAL,BARNES-FRANKLIN ART GALLERY,,PSYCHIATRIC,TUNXIS COMMUNITY COLLEGE,271 SCOTT SWAMP ROAD,FARMERVILLE,LA,6032,,32.77612793,-92.40562585,2,3,9,1,66000798,,,
15371373,RIVERBRIDGE SPECIALTY HOSPITAL,BARNUM MUSEUM FOUNDATION INC,BARNUM MUSEUM FOUNDATION,LONG TERM CARE,,820 MAIN ST,VIDALIA,LA,6604,2033311104,31.56117486,-91.42606698,1,1,9,1,222723433,201312,528071,528071
5371418,CITIZENS MEDICAL CENTER,FAIRFIELD UNIVERSITY,,GENERAL ACUTE CARE,FAIRFIELD UNIVERSITY,1073 NORTH BENSON RD,COLUMBIA,LA,6824,2032544000,32.06003995,-92.09913767,2,1,9,1,60646623,201406,313770004,282265235
22830662,BROWN MEMORIAL CONVALESCENT CENTER,BIRDCRAFT MUSEUM AT FAIRFIELD,,LONG TERM CARE,,2325 BURR STREET,ROYSTON,GA,6824,2032590416,34.28325037,-83.11897237,2,1,9,1,,,,
70990806,COLLEGE MEDICAL CENTER,BLOOMFIELD FARM IMPLEMENT MUSEUM INC,,GENERAL ACUTE CARE,,434 TUNXIS AVE,LONG BEACH,CA,6002,,33.80709287,-118.1933899,2,3,9,1,61030940,,,
71794577,KAISER FOUNDATION HOSPITAL - SAN LEANDRO,BLUE SLOPE COUNTRY MUSEUM,,GENERAL ACUTE CARE,,138 BLUE HILL ROAD,SAN LEANDRO,CA,6254,8603773740,37.7064062,-122.1646545,4,11,9,1,,,,
72590723,KINDRED HOSPITAL PARAMOUNT,BRANT FOUNDATION INC,,LONG TERM CARE,,80 FIELD POINT RD STE 3RD FL,PARAMOUNT,CA,6830,2038690611,33.88463186,-118.1622671,2,1,9,1,61470051,201312,2563305,
73790650,DEPARTMENT OF STATE HOSPITAL-METROPOLITAN,BRISTOL SPORTS HALL OF FAME & MUSEUM,,PSYCHIATRIC,,255 DIVINITY ST,NORWALK,CA,6010,8605892938,33.92803135,-118.0679897,2,3,9,1,61496823,201406,0,0
196162274,PINCKNEYVILLE COMMUNITY HOSPITAL,BRUCE MUSEUM INC,BRUCE MUSEUM INC.,CRITICAL ACCESS,,MUSEUM DRIVE,PINCKNEYVILLE,IL,6830,2038690376,38.084846,-89.349108,2,1,9,1,237105904,201406,7278065,5467122
85531419,ST JOSEPH'S HOSPITAL - SAVANNAH,BRUCE MUSEUM INC,,GENERAL ACUTE CARE,,TODS PT,SAVANNAH,GA,6830,2038690376,31.98543032,-81.15455637,2,1,9,1,237105904,201406,7278065,5467122
86630165,KINDRED HOSPITAL ROME,BUDD RAIL DIESEL CAR FOUNDATION INC,,LONG TERM CARE,,40 TALL PINE RD,ROME,GA,6461,,34.25971345,-85.18023963,1,9,9,1,61442652,201310,20000,
87130286,UPSON REGIONAL MEDICAL CENTER,CANTON CLAY WORKS,,GENERAL ACUTE CARE,,150 CHERRY BROOK RD,THOMASTON,GA,6019,8606931000,32.8862977,-84.33650699,2,3,9,1,,,,
87531719,PHOEBE SUMTER MEDICAL CENTER,CAPT. ALAN L. BEAN HYPOSPHERIUM,,GENERAL ACUTE CARE,,324 MONTEVIDEO ROAD,AMERICUS,GA,6001,,32.06696234,-84.2560502,4,3,9,1,,,,
87931830,ROOSEVELT WARM SPRINGS LTAC HOSPITAL,CENTER FOR CONTEMPORARY PRINTMAKING INC,,LONG TERM CARE,,299 WEST AVE,WARM SPRINGS,GA,6850,2038997999,32.88798074,-84.6923449,1,1,9,1,61400371,201312,791156,675644
90030265,SOUTHEASTERN REGIONAL MEDICAL CENTER,CHARLES IVES BIRTHPLACE MUSEUM,,GENERAL ACUTE CARE,,5 MOUNTAINVILLE AVE,NEWNAN,GA,6810,2037783540,33.38483465,-84.75774669,1,1,9,1,,,,
196500984,DOCTORS CENTER HOSPITAL SANFERNANDO DE CAROLINA,CHILDRENS MUSEUM INC,CHILDREN'S MUSEUM,GENERAL ACUTE CARE,,950 TROUT BROOK DR,CAROLINA,PR,6119,,18.380443,-65.95579,1,3,9,1,60896043,201406,2285324,1656405
2054311,BROWN CTY COMMUNITY TREATMENT CENTER,CHILDRENS MUSEUM OF SOUTHEASTERN CONNECTICUT INC,CHILDREN'S MUSEUM OF SOUTHEASTERN CONNECTICUT,PSYCHIATRIC,,409 MAIN ST,GREEN BAY,WI,6357,8606911111,44.52271226,-87.92482708,2,11,9,1,112113076,201309,287679,281389
151253226,WHEATON FRANCISCAN WI HEART SPINE AND ORTHO,CONFEDERATION OF UNION GENERALS INC,,GENERAL ACUTE CARE,,71 LONG HILL CROSS ROAD,WAUWATOSA,WI,6484,,43.03581215,-88.03726582,2,1,9,1,371658807,201312,0,0
196600956,HOSPITAL PSIQUIATRICO DE NINOS YADOLESCENTES,CONNECTICUT ANTIQUE FIRE APPARATUS ASSOC INC,CONNECTCUT ANTIQUE FIRE APPARATUS A,PSYCHIATRIC,,PO BOX 297,BAYAMON,PR,6088,8606276540,18.36765566,-66.15439126,2,3,9,1,237295196,201412,0,0
159171301,COMPASS BEHAVIORAL CENTER OF ALEXANDRIA,CONNECTICUT AEROSPACE HALL OF FAME AND MUSEUM INC,,GENERAL ACUTE CARE,,PO BOX 1293,ALEXANDRIA,LA,6615,2033753332,31.25219156,-92.48198781,1,1,9,1,311604748,201406,17469,14133
163570394,OCSHNER ST. ANNE GENERAL HOSPITAL,CONNECTICUT AEROSPACE HALL OF FAME AND MUSEUM INC,,GENERAL ACUTE CARE,,550 MAIN ST,RACELAND,LA,6615,2033801400,29.70267142,-90.5652539,1,1,9,1,311604748,201406,17469,14133
164970748,FELICIANA FORENSIC FACILITY,CONNECTICUT ANTIQUE MACHINERY ASSOCIATION INC,,GENERAL ACUTE CARE,,PO BOX 1467,JACKSON,LA,6776,8609270050,30.83263569,-91.21066049,2,,9,1,61090238,201403,138992,136410
160970056,UNITED MEDICAL HEALTHWEST-NEW ORLEANS,CONNECTICUT BOXING HALL OF FAME INC,,REHABILITATION,,123 CARRIAGE DR,GRETNA,LA,6001,,29.86597947,-90.03069185,2,3,9,1,542179245,201412,44936,13383
152354971,RIPON MEDICAL CENTER,CONNECTICUT CHILDRENS MUSEUM,CONNECTICUT CHILDREN'S MUSEUM,CRITICAL ACCESS,,22 WALL ST,RIPON,WI,6511,2035625437,43.83437609,-88.81775153,1,9,9,1,237346410,201308,799710,799710
13402908,VA MEDICAL CENTER - PROVIDENCE,CONNECTICUT EASTERN CHAPT NATIONAL RAILWAY HISTORICAL SOCIE,,GENERAL ACUTE CARE,,55 BRIDGE ST,PROVIDENCE,RI,6226,8604569999,41.83213908,-71.43314954,3,15,9,1,61330649,201312,65638,57692
15954660,TOMAH VA MEDICAL CENTER,CONNECTICUT ELECTRIC RAILWAY ASSOCIATION INCORPORATED,,MILITARY,,PO BOX 360,TOMAH,WI,6088,8606276540,44.00308068,-90.49331901,4,3,9,1,66070002,201412,408932,396558
5854452,ASCENSION GOOD SAMARITAN HLTH CTR,CONNECTICUT HUMANITIES COUNCIL,,GENERAL ACUTE CARE,,37 BROAD ST,MERRILL,WI,6457,8606853422,45.17563254,-89.68183128,1,7,9,1,60902244,201406,2861485,2861485
58796001,RESTPADD PSYCHIATRIC HEALTH FACILITY,CONNECTICUT RAILROAD HISTORICAL ASSOCIATION INCORPORATED,,PSYCHIATRIC,,PO BOX 255,REDDING,CA,6018,,40.58659539,-122.4119741,4,5,9,1,66085781,201409,34112,31295
59093436,THE CHAMPION CENTER,CONNECTICUT RIVER FOUNDATION AT STEAMBOAT DOCK INC,,REHABILITATION,,67 MAIN ST,LOMPOC,CA,6426,8607678269,34.63537161,-120.4521883,2,7,9,1,237417579,201406,1074609,1064819
23831825,STEWART WEBSTER HOSPITAL,CONNECTICUT SCIENCE CENTER INC,,CRITICAL ACCESS,,250 COLUMBUS BLVD,RICHLAND,GA,6103,8607243623,32.08616827,-84.66069977,1,3,9,1,61538101,201312,11974494,10792709
21891761,KAISER FND HOSP ONTARIO MEDICAL CENTER CAMPUS,CONNECTICUT STATE MUSEUM OF NATURAL HISTORY,,GENERAL ACUTE CARE,UNIVERSITY OF CONNECTICUT,2019 HILLSIDE RD,ONTARIO,CA,6269,8604864460,34.03207956,-117.6085993,2,13,9,1,60772160,,,
25692354,LOMA LINDA UNIV. MED. CENTER EAST CAMPUS HOSPITAL,CONNECTICUT ELECTRIC RAILWAY ASSOCIATION INCORPORATED,,GENERAL ACUTE CARE,,58 NORTH RD,LOMA LINDA,CA,6088,8606276540,34.04730564,-117.2516368,4,3,9,1,66070002,201412,408932,396558
44792404,ST. BERNARDINE MEDICAL CENTER,CONNECTICUT WOMENS HALL OF FAME INC,,GENERAL ACUTE CARE,,320 FITCH ST,SAN BERNARDINO,CA,6515,3203482478,34.13467236,-117.27702,1,9,9,1,61492895,201406,442572,442572
20092120,KAISER FND HOSP - SAN DIEGO,COPERNICAN OBSERVATORY AND PLANETARIUM,,GENERAL ACUTE CARE,CENTRAL CONNECTICUT STATE UNIVERSITY,1615 STANLEY STREET,SAN DIEGO,CA,6053,8608323200,32.79156258,-117.0951595,2,3,9,1,61303381,,,
40992037,SCRIPPS GREEN HOSPITAL,CRRA TRASH MUSEUM,,GENERAL ACUTE CARE,,211 MURPHY ROAD,LA JOLLA,CA,6114,8607577765,32.8968589,-117.2428711,1,3,9,1,,,,
41092024,SCRIPPS MEMORIAL HOSPITAL - ENCINITAS,CONNECTICUT COLLEGE,,GENERAL ACUTE CARE,CONNECTICUT COLLEGE,270 MOHEGAN AVENUE PARKWAY,ENCINITAS,CA,6320,8604471911,33.03734478,-117.2841834,1,11,9,1,60646587,201406,179406000,151000000
42292123,SHARP MARY BIRCH HOSPITAL FOR WOMEN AND NEWBORNS,DAHESH MUSEUM OF ART,,WOMEN,,45 E PUTNAM AVE STE 105,SAN DIEGO,CA,6830,2127590606,32.79829578,-117.1549778,2,1,9,1,133458208,201305,6059958,
51092103,UC SAN DIEGO HEALTH HILLCREST - HILLCREST MEDICAL CENTER,DANBURY RAILWAY MUSEUM INC,,GENERAL ACUTE CARE,,PO BOX 90,SAN DIEGO,CA,6813,2037788337,32.75477023,-117.1657314,1,1,9,1,61407189,201312,188890,154682
4894118,CALIFORNIA PACIFIC MED CTR-CALIFORNIA WEST,WESLEYAN UNIVERSITY,,GENERAL ACUTE CARE,WESLEYAN UNIVERSITY,301 HIGH STREET,SAN FRANCISCO,CA,6459,8606852500,37.7865092,-122.4560306,1,7,9,1,60646959,201306,500291015,283031000
5094115,CALIFORNIA PACIFIC MED CTR-PACIFIC CAMPUS,DD LIVING HISTORY FARM,,GENERAL ACUTE CARE,,102 PAINTERS HILL ROAD,SAN FRANCISCO,CA,6783,8603540649,37.79070454,-122.4312945,4,5,9,1,,,,
46594117,ST. MARY'S MEDICAL CENTER,SAN FRANCISCO,DEEP RIVER ANCIENT MUSTER,GENERAL ACUTE CARE,GENERAL ACUTE CARE,,PO BOX 135,SAN FRANCISCO,CA,6417,4138009755,37.77408876,-122.4537516,2,7,9,1,66150529,201410,0
20595403,KAISER FND HOSP - SANTA ROSA,DENISON HOMESTEAD MUSEUM,,GENERAL ACUTE CARE,,120 PEQUOTSEPOS ROAD,SANTA ROSA,CA,6355,8605369248,38.47179301,-122.7270644,2,11,9,1,,,,
19594590,KAISER FND HOSP - REHABILITATION CENTER VALLEJO,DISCOVERY CENTER INC,,GENERAL ACUTE CARE,,790 FARMINGTON AVE STE 4A,VALLEJO,CA,6032,8602849489,38.12690208,-122.2483773,4,3,9,1,20567674,201406,806257,794042
53195695,WOODLAND MEMORIAL HOSPITAL,DISCOVERY MUSEUM INC,,GENERAL ACUTE CARE,,4450 PARK AVE,WOODLAND,CA,6604,2033723521,38.66392502,-121.7921452,1,1,9,1,60740527,201406,2081210,1857682
1294609,ALTA BATES SUMMIT MED CTR-SUMMIT CAMPUS-SUMMIT,DISCOVERY MUSEUM AND PLANETARIUM,,GENERAL ACUTE CARE,,4450 PARK AVENUE,OAKLAND,CA,6604,,37.82013961,-122.2640042,2,1,9,1,,,,
39794578,SAN LEANDRO HOSPITAL,THE DNA EPICENTER INC,,GENERAL ACUTE CARE,,300 HARTFORD RD,SAN LEANDRO,CA,6420,8604420391,37.71228835,-122.1434937,1,11,9,1,61404460,201006,198100,187835
46694545,ST. ROSE HOSPITAL,DONNELLY HUSKEY HERITAGE SPORTS MUSEUM,,GENERAL ACUTE CARE,UNIVERSITY OF CONNECTICUT,2384 ALUMNI DRIVE,HAYWARD,CA,6269,8604869097,37.63344199,-122.0879125,2,13,9,1,60772160,,,
45995204,ST. JOSEPH'S BEHAVIORAL HEALTH CENTER,DOROTHY WHITFIELD HISTORIC SOCIETY INC,,PSYCHIATRIC,,PO BOX 229,STOCKTON,CA,6437,2034539477,37.9765963,-121.2910709,2,9,9,1,66046400,201309,52226,27862
46095204,ST. JOSEPH'S MEDICAL CENTER OF STOCKTON,EASTERN CONNECTICUT STATE UNIVERSITY PLANETARIUM,,GENERAL ACUTE CARE,EASTERN CONNECTICUT STATE UNIVERSITY,83 WINDHAM STREET,STOCKTON,CA,6226,8604654317,37.97046719,-121.2881828,3,15,9,1,61277820,,,
13291741,FOOTHILL PRESBYTERIAN HOSPITAL-JOHNSTON MEMORIAL,EDGERTON MEMORIAL PLANETARIUM,,GENERAL ACUTE CARE,,39 SCOFIELDTOWN ROAD,GLENDORA,CA,6903,,34.13265458,-117.8712597,1,1,9,1,,,,
14791204,GLENDALE MEMORIAL HOSPITAL AND HEALTH CENTER,ELI WHITNEY MUSEUM INC,,GENERAL ACUTE CARE,,915 WHITNEY AVE,GLENDALE,CA,6517,2037771833,34.12816563,-118.2566432,2,9,9,1,60952478,201408,1683366,1683366
19090027,KAISER FOUNDATION LOS ANGELES MEDICAL CENTER,EVERWONDER CHILDREN'S MUSEUM,,GENERAL ACUTE CARE,,31 PECK'S LANE,LOS ANGELES,CA,6404,2033644009,34.09857365,-118.2941753,4,1,9,1,,,,
19391402,KAISER PERMANENTE PANORAMA CITY,WESLEYAN UNIVERSITY,,GENERAL ACUTE CARE,WESLEYAN UNIVERSITY,237 HIGH ST,PANORAMA CITY,CA,6459,8606852695,34.21856419,-118.4302193,1,7,9,1,60646959,201306,500291015,283031000
36691356,PROVIDENCE TARZANA MEDICAL CENTER,FAMILY CENTER MUSEUM,,GENERAL ACUTE CARE,,110 CHURCH ST,TARZANA,CA,6010,8605827021,34.17039322,-118.5319041,2,3,9,1,,,,
42990020,SHRINERS HOSPITAL FOR CHILDREN - L.A.,FLORENCE GRISWOLD MUSEUM,,GENERAL ACUTE CARE,,96 LYME ST,LOS ANGELES,CA,6371,,34.06720478,-118.2863921,4,11,90,1,,,,
50190716,GARDENS REGIONAL HOSPITAL AND MEDICAL CENTER,FRIENDS MUSEUM OF THE UNIVERSITY OF CONNECTICUT HEALTH CENTER,,GENERAL ACUTE CARE,UNIVERSITY OF CONNECTICUT HEALTH CENTER,263 FARMINTON AVENUE,HAWAIIAN GARDENS,CA,6030,8606792000,33.83364001,-118.079678,2,3,9,1,,,,
45295422,ADVENTIST HEALTH CLEARLAKE,GALLERY AT THE VISUAL & PERFORMING ARTS CENTER,,GENERAL ACUTE CARE,WESTERN CONNECTICUT STATE UNIVERSITY,181 WHITE STREET,CLEARLAKE,CA,6810,,38.93561886,-122.6201445,1,1,9,1,66000798,,,
6193638,VALLEY CHILDREN'S HOSPITAL,SACRED HEART UNIVERSITY,,CHILDREN,SACRED HEART UNIVERSITY,5151 PARK AVENUE,MADERA,CA,6825,2033717999,36.88404783,-119.8002424,2,1,9,1,60776644,201306,209842972,209448756
11792270,EISENHOWER MEDICAL CENTER,GLACIER SOCIETY INC,,GENERAL ACUTE CARE,,905 HONEYSPOT RD,RANCHO MIRAGE,CA,6615,2033756638,33.76335207,-116.4062411,1,1,9,1,61526777,201312,82615,62765
15295124,GOOD SAMARITAN HOSPITAL-SAN JOSE,GOLDEN AGE OF TRUCKING MUSEUM INC,,GENERAL ACUTE CARE,,PO BOX 1435,SAN JOSE,CA,6762,2035772181,37.25207874,-121.9465769,2,9,9,1,61522532,,,
20495051,KAISER FND HOSP - SANTA CLARA,GOV TRUMBULL HOUSE MUSEUM,,GENERAL ACUTE CARE,,169 W TOWN ST,SANTA CLARA,CA,6249,8606427558,37.33540138,-121.998873,4,11,9,1,,,,
27094304,LUCILE SALTER PACKARD CHILDREN'S HOSP. AT STANFORD,GOVERNOR SAMUEL HUNTINGTON TRUST INC,,GENERAL ACUTE CARE,,PO BOX 231,PALO ALTO,CA,6264,8604568381,37.43600458,-122.17539,4,,9,1,61407133,201406,132968,132968
19494063,KAISER FND HOSP - REDWOOD CITY,GREATER HARTFORD TWILIGHT,,GENERAL ACUTE CARE,,14 PAWNEE RD,REDWOOD CITY,CA,6118,8605684845,37.48884784,-122.2233901,1,3,9,1,222719757,,,
18094520,JOHN MUIR MEDICAL CENTER-CONCORD CAMPUS,GREATER MIDDLETOWN MILITARY MUSEUM,,GENERAL ACUTE CARE,,17 LORELEI CIRCLE,CONCORD,CA,6457,,37.98308958,-122.0334968,1,7,9,1,200228615,201312,0,0
47794509,SUTTER DELTA MEDICAL CENTER,GREENWICH SCIENCE CENTER INC,,GENERAL ACUTE CARE,,209 BRUCE PARK AVE,ANTIOCH,CA,6830,,37.98223445,-121.8029785,2,,9,1,261354960,,,
19995825,KAISER FND HOSP - SACRAMENTO,H M S ROSE FOUNDATION,H M S ROSE FOUNDATION,GENERAL ACUTE CARE,,1 BOSTWICK AVE,SACRAMENTO,CA,6605,2033350932,38.60179775,-121.393144,1,1,9,1,222621683,,,
43195945,SIERRA NEVADA MEMORIAL HOSPITAL,STOWE DAY FOUNDATION,,GENERAL ACUTE CARE,,77 FOREST ST,GRASS VALLEY,CA,6105,2035229258,39.22801629,-121.0474998,1,3,9,1,66042822,201212,997544,
24690623,LA PALMA INTERCOMMUNITY HOSPITAL,HARVEST RESEARCH IN CULTURE INC,,GENERAL ACUTE CARE,,175 BROOKRIDGE AVENUE,LA PALMA,CA,6825,,33.84751418,-118.0383023,2,1,9,1,272749225,201312,0,0
38492673,SADDLEBACK MEMORIAL MEDICAL CENTER - SAN CLEMENTE,YALE UNIVERSITY,,GENERAL ACUTE CARE,YALE UNIVERSITY,333 CEDAR STREET,SAN CLEMENTE,CA,6520,,33.45706524,-117.6501839,1,9,9,1,60646973,201306,7943643646,3688471185
13795991,FREMONT MEDICAL CENTER,HENRY B. DUPONT III PLANETARIUM,,GENERAL ACUTE CARE,,4450 PARK AVENUE,YUBA CITY,CA,6604,,39.14310632,-121.618012,1,1,9,1,,,,
10230143,PIEDMONT MOUNTAINSIDE HOSPITAL,HENRY L FERGUSON MUSEUM,,GENERAL ACUTE CARE,,187 WILLIAMS ST,JASPER,GA,6320,6317887239,34.45824868,-84.41291289,1,103,36,2,116015380,201412,766050,637259
15530606,ST MARYS HEALTH CARE SYSTEM,HENRY WHITFIELD STATE MUSEUM,,GENERAL ACUTE CARE,,248 OLD WHITFIELD ST,ATHENS,GA,6437,2034532457,33.94722132,-83.40525246,2,9,9,1,,,,
14130080,RIDGEVIEW INSTITUTE,HICKS-STEARNS FAMILY MUSEUM,,PSYCHIATRIC,,42 TOLLAND GRN,SMYRNA,GA,6084,8608757552,33.85644329,-84.51105483,2,13,9,1,,,,
502891,WESTERLY HOSPITAL,HILL MUSEUM CORP,,GENERAL ACUTE CARE,,210 WEST ST,WESTERLY,RI,6519,,41.36218908,-71.82530324,1,9,9,1,900661673,,,
1553715,ST MARYS HOSPITAL MADISON,HILL-STEAD MUSEUM,,GENERAL ACUTE CARE,,35 MOUNTAIN RD,MADISON,WI,6032,8606772063,43.05933846,-89.40142922,4,3,9,1,60646673,201312,5905705,2088892
8253213,AURORA PSYCHIATRIC HSPTL,HOLLEY-WILLIAMS HOUSE MUSEUM,,PSYCHIATRIC,,15 MILLERTON RD,WAUWATOSA,WI,6068,8604352878,43.0467651,-88.00771643,4,5,9,1,,,,
9753097,COLUMBIA CENTER,HOLLISTER HOUSE GARDEN INC,,GENERAL ACUTE CARE,,PO BOX 1454,MEQUON,WI,6793,8608682200,43.25667793,-87.92615796,4,5,9,1,201247689,201312,1377363,1053617
4354923,THEDACARE MEDICAL CENTER BERLIN,HORSE CAVALRY MUSEUM INC,,GENERAL ACUTE CARE,,PO BOX 978,BERLIN,WI,6001,,43.97847715,-88.94122636,2,3,9,1,61316178,,,
63072758,MERCY HOSPITAL ROGERS,HOUSATONIC MUSEUM OF ART,,GENERAL ACUTE CARE,HOUSATONIC COMMUNITY COLLEGE,900 LAFAYETTE BOULEVARD,ROGERS,AR,6604,2033325052,36.30899285,-94.18297802,1,1,9,1,134310869,,,
10454024,ST CROIX REG MED CTR,HUNTINGTON HOUSE MUSEUM INC,,GENERAL ACUTE CARE,,PO BOX 27,SAINT CROIX FALLS,WI,6095,8606882004,45.40903243,-92.64257812,2,3,9,1,61604610,,,
11854017,WESTFIELDS HOSPITAL,IGOR I SIKORSKY HISTORICAL ARCHIVES,,GENERAL ACUTE CARE,,6900 MAIN ST M/S S5578A,NEW RICHMOND,WI,6614,2033864356,45.11776075,-92.55550038,1,1,9,1,61451625,201412,35818,26045
12453081,ST NICHOLAS HOSPITAL,IMAGINE NATION CHILDREN'S MUSEUM,,GENERAL ACUTE CARE,,1 PLEASANT ST,SHEBOYGAN,WI,6010,8603141400,43.7623479,-87.74753796,2,3,9,1,,,,
13154665,VERNON MEM HSPTL,INSTITUTE FOR AMERICAN INDIAN STUDIES,,GENERAL ACUTE CARE,,PO BOX 1260,VIROQUA,WI,6793,2038680518,43.55167397,-90.88839128,4,5,9,1,237124597,201312,336530,303540
72390241,PIH HOSPITAL - DOWNEY,INTERNATIONAL MUSEUM OF CARTOON ART INC,,GENERAL ACUTE CARE,,61 STUDIO RD,DOWNEY,CA,6903,5613922500,33.9343518,-118.130904,1,1,9,1,650230316,,,
72790503,PROVIDENCE LITTLE COMPANY OF MARY TRANSITIONAL CARE CENTER,IRELANDS GREAT HUNGER MUSEUM INC,,GENERAL ACUTE CARE,,275 MOUNT CARMEL A,TORRANCE,CA,6518,2035826500,33.83934812,-118.3597215,2,9,9,1,461158164,,,
58592354,LOMA LINDA UNIVERSITY CHILDREN'S HOSPITAL,THE IRISH AMERICAN MUSEUM OF WASHINGTON D C INC,,CHILDREN,,28 SOUND VIEW DRIVE,LOMA LINDA,CA,6830,,34.05013083,-117.2640945,2,1,9,1,134354547,201412,0,0
15254904,ASCENSION NE WISCONSIN MERCY CAMPUS,UNIVERSITY OF HARTFORD,,GENERAL ACUTE CARE,UNIVERSITY OF HARTFORD,200 BLOOMFIELD AVENUE,OSHKOSH,WI,6117,8607684090,44.01242072,-88.60104549,1,3,9,1,60731360,201306,264151052,0
75420007,MEDSTAR-GEORGETOWN UNIVERSITY MEDICAL CENTER,JOSEPH N GOFF HOUSE INC,,GENERAL ACUTE CARE,,PO BOX 337,WASHINGTON,DC,6424,8604225450,38.91195851,-77.07525457,3,7,9,1,61494507,201306,0,0
31233525,ADVENT HEALTH DADE CITY,KEENEY MEMORIAL CULTURE CENTER,,GENERAL ACUTE CARE,,200 MAIN ST,DADE CITY,FL,6109,8605297161,28.34796286,-82.20072008,2,3,9,1,272135734,,,
7233484,DELRAY MEDICAL CENTER,KIDCITY CHILDREN'S MUSEUM,,GENERAL ACUTE CARE,,119 WASHINGTON STREET,DELRAY BEACH,FL,6457,8603470495,26.43719284,-80.12778775,1,7,9,1,,,,
36034758,POINCIANA MEDICAL CENTER,THE KIDNETIC CLUBHOUSE,,GENERAL ACUTE CARE,,94 POPLAR DRIVE,KISSIMMEE,FL,6484,2032099771,28.14478076,-81.47668786,2,1,9,1,,,,
9802703,ARBOUR FULLER HOSPITAL,KIDSPLAY CHILDREN'S MUSEUM,,PSYCHIATRIC,,61 MAIN STREET,ATTLEBORO,MA,6790,8606187700,41.92408385,-71.36112256,3,5,9,1,,,,
9702146,ARBOUR HUMAN RESOURCE INSTITUTE,KNIGHTS OF COLUMBUS MUSEUM INC,,PSYCHIATRIC,,ONE COLUMBUS PLAZA,BROOKLINE,MA,6510,2038650400,42.35077951,-71.12124228,1,9,9,1,61590283,201312,2020862,1927534
36232068,ASSENCION ST. VINCENT'S MEDICAL CENTER CLAY COUNTY,YALE UNIVERSITY,,GENERAL ACUTE CARE,YALE UNIVERSITY,355 PROSPECT STREET,MIDDLEBURG,FL,6511,2032858840,30.10876243,-81.83268869,1,9,9,1,60646973,201306,7943643646,3688471185
36334471,ENCOMPASS HEALTH REHABILITATION HOSPITAL OF OCALA,LIBERTY BELL MUSEUM,,REHABILITATION,,1068 TOLLAND ST,OCALA,FL,6108,8602893832,29.16587554,-82.16233494,1,3,9,1,,,,
3906250,NATCHAUG HOSPITAL,INC.,LOCK MUSEUM OF AMERICA INC,PSYCHIATRIC,GENERAL ACUTE CARE,,PO BOX 104,MANSFIELD CENTER,CT,6786,8605896359,41.74110392,-72.19801148,2,5,9,1,60965116,201412,0
36634997,ENCOMPASS HEALTH REHABILITATION HOSPITAL AT MARTIN HEALTH,LOCKWOOD-MATHEWS MANSION MUSEUM OF NORWALK INC,,REHABILITATION,,295 WEST AVE,STUART,FL,6850,2038389799,27.13343729,-80.22245582,1,1,9,1,60811776,201312,1550687,1482871
10502114,SHRINERS' HOSPITAL FOR CHILDREN,LOWER FAIRFIELD ART CENTER INC,,CHILDREN,,65 OVERLOOK DR,BOSTON,MA,6830,2036295271,42.36309255,-71.06630188,2,1,9,1,455613929,201412,0,0
10602129,SPAULDING REHABILITATION HOSPITAL,LUTZ CHILDRENS MUSEUM,,REHABILITATION,,47 SOUTH MAIN STREET,BOSTON,MA,6040,8606492838,42.37850908,-71.04905555,2,3,9,1,60740514,201406,394484,387094
11402720,DR JOHN C CORRIGAN MENTAL HEALTH CENTER,LYMAN ALLYN PSYCHIATRIC INC,,PSYCHIATRIC,,625 WILLIAMS STREET,FALL RIVER,MA,6320,8604432545,41.70748691,-71.14571447,1,11,9,1,60888653,201406,0,0
12101904,BAY RIDGE HOSPITAL BEVERLY,ALBERTUS MAGNUS COLLEGE,,PSYCHIATRIC,ALBERTUS MAGNUS COLLEGE,700 PROSPECT ST,LYNN,MA,6511,,42.47162011,-70.95676093,1,9,9,1,60646520,201406,39198013,35656671
12001056,ENCOMPASS HEALTH HOSPITAL OF WESTERN MASS,MANCHESTER HISTORICAL SOCIETY,,REHABILITATION,,175 PINE ST,LUDLOW,MA,6040,8606479983,42.15577594,-72.47207734,2,9,25,1,46112604,201404,2112245,558361
12142728,T J HEALTH COLUMBIA,MARIETTA MUSEUM ART WHIMSY INC,,GENERAL ACUTE CARE,,165 PROSPECT AVE,COLUMBIA,KY,6437,2034533384,37.09664157,-85.29454565,2,9,9,1,421710862,,,
13050144,DECATUR COUNTY HOSPITAL,THE MARK TWAIN MEMORIAL,,GENERAL ACUTE CARE,,66 FOREST ST,LEON,IA,6105,8602470998,40.75093467,-93.74694077,1,3,9,1,60685118,201401,2580275,2269801
4466032,ANDERSON COUNTY HOSPITAL,THE MARK TWAIN MEMORIAL,,CRITICAL ACCESS,,351 FARMINGTON AVENUE,GARNETT,KS,6105,8602470998,38.279877,-95.25033865,1,3,9,1,60685118,201401,2580275,2269801
7567860,KEARNY COUNTY HOSPITAL,MARLBOROUGH ARTS CENTER & MUSEUM INC,,CRITICAL ACCESS,,PO BOX 313,LAKIN,KS,6447,8602959389,37.94659327,-101.2519299,2,3,9,1,61492765,201406,0,0
7767467,OTTAWA COUNTY HEALTH CENTER,MASHANTUCKET PEQUOT MUSEUM,,CRITICAL ACCESS,,110 PEQUOT TRL,MINNEAPOLIS,KS,6338,8603966800,39.12933196,-97.70394425,4,11,9,1,,,,
3502492,BETH ISRAEL DEACONESS HOSPITAL - NEEDHAM,MASHANTUCKET PEQUOT MUSEUM AND RESEARCH CENTER,,GENERAL ACUTE CARE,,110 PEQUOT TRAIL,NEEDHAM,MA,6339,8603967034,42.2771,-71.2369,4,11,9,1,,,,
12402745,VIBRA HOSPITAL OF SOUTHWESTERN MASSACHUSETTS,MEMORIAL MILITARY MUSEUM INC,,REHABILITATION,,PO BOX 1231,NEW BEDFORD,MA,6010,8605835466,41.74072523,-70.94575361,2,3,9,1,510148048,201408,0,0
4002062,NORWOOD HOSPITAL,METRO-NORTH DIVISION NATIONAL MODEL RAILROAD ASSOCIATION IN,,GENERAL ACUTE CARE,,58 STIRRUP HILL ROAD,NORWOOD,MA,6824,,42.189,-71.2021,2,1,9,1,300739908,201412,0,0
12602537,SPAULDING REHABILITATION HOSPITAL CAPE COD,FAIRFIELD UNIVERSITY,,REHABILITATION,FAIRFIELD UNIVERSITY,4400 UNIVERSITY DRIVE,SANDWICH,MA,6824,,41.7329845,-70.46810284,2,1,9,1,60646623,201406,313770004,282265235
6702143,CAMBRIDGE HEALTH ALLIANCE - SOMERVILLE CAMPUS,MILITARY HISTORIANS MUSEUM,,GENERAL ACUTE CARE,,N MAIN ST,SOMERVILLE,MA,6498,8603999460,42.39,-71.1094,2,7,9,1,,,,
12701104,SHRINERS' HOSPITAL FOR CHILDREN,MILITARY MUSEUM OF SOUTHERN NEW ENGLAND INC,,CHILDREN,,125 PARK AVE,SPRINGFIELD,MA,6810,,42.12131503,-72.59237295,1,1,9,1,61145630,201405,117208,114664
372903,MERCY HOSPITAL FORT SMITH,MONROE HISTORICAL SOCIETY INCORPORATED,,GENERAL ACUTE CARE,,PO BOX 212,FORT SMITH,AR,6468,2032611383,35.35586599,-94.35205497,4,1,9,1,66067831,201312,21239,19214
7472901,HEALTHSOUTH REHABILITATION HOSPITAL OF FORT SMITH,EUGENE ONEILL MEMORIAL THEATER CENTER INC,,REHABILITATION,,305 GREAT NECK ROAD,FORT SMITH,AR,6385,8604430051,35.37394031,-94.41875448,2,11,9,1,66070900,201408,7360864,6976153
9700000,WHITE COUNTY MEDICAL CENTER - SOUTH CAMPUS,MULTI CULTURAL EDUCATION MUSEUM,,GENERAL ACUTE CARE,,378 STANLEY ST,SEARCY,AR,6051,8602237183,35.23409441,-91.73107431,2,3,9,1,731670895,,,
10172143,WHITE COUNTY MEDICAL CENTER - NORTH CAMPUS,MUSEUM ACADEMY PTO,,GENERAL ACUTE CARE,,1283 ASYLUM AVENUE,SEARCY,AR,6105,,35.25188604,-91.69700113,2,3,9,1,800760127,201406,0,0
10272834,RIVER VALLEY MEDICAL CENTER,UNIVERSITY OF HARTFORD,,CRITICAL ACCESS,UNIVERSITY OF HARTFORD,200 BLOOMFIELD AVE,DARDANELLE,AR,6117,8607684090,35.22047614,-93.15729817,1,3,9,1,60731360,201306,264151052,0
2271923,BAPTIST HEALTH MEDICAL CENTER - ARKADELPHIA,MUSEUM OF CENTRAL CONNECTICUT STATE UNIVERSITY,,CRITICAL ACCESS,CENTRAL CONNECTICUT STATE UNIVERSITY,1615 STANLEY STREET,ARKADELPHIA,AR,6053,,34.12291357,-93.08882416,2,3,9,1,61303381,,,
872616,MERCY HOSPITAL BERRYVILLE,MUSEUM OF CONNECTICUT GLASS INC,,CRITICAL ACCESS,,27 PLANK LANE,BERRYVILLE,AR,6033,,36.3590621,-93.55182577,2,,9,1,61392575,201403,0,0
1072632,EUREKA SPRINGS HOSPITAL,MUSEUM OF CONTEMPORARY IMPRESSIONISM INC,,CRITICAL ACCESS,,PO BOX 67,EUREKA SPRINGS,AR,6776,,36.40016379,-93.74423592,2,5,9,1,61426321,,,
2871653,SOUTHEAST REHABILITATION HOSPITAL,COMPANY OF FIFERS AND DRUMMERS INC,,REHABILITATION,,62 N MAIN ST,LAKE VILLAGE,AR,6422,8607672237,33.30629397,-91.28958992,2,7,9,1,237003258,201312,23921,23921
671671,BRADLEY COUNTY MEDICAL CENTER,MUSEUM-CONNECTICUT HISTORY,,CRITICAL ACCESS,,231 CAPITOL AVE,WARREN,AR,6106,8607576535,33.61036413,-92.05925489,1,3,9,1,,,,
8872455,FIVE RIVER MEDICAL CENTER,MYSTIC ART ASSOCIATION,,GENERAL ACUTE CARE,,9 WATER ST,POCAHONTAS,AR,6355,8605367601,36.28976027,-90.99738763,2,11,9,1,66000563,201312,1320326,960303
2571742,DALLAS COUNTY MEDICAL CENTER,MYSTIC SEAPORT MUSEUM INC,MYSTIC SEAPORT MUSEUM,CRITICAL ACCESS,,75 GREENMANVILLE AVE,FORDYCE,AR,6355,8605720711,33.81085539,-92.42558764,2,11,9,1,60653120,201404,30846685,17434817
4100000,CRITTENDEN HOSPITAL ASSOCIATION,NATIONAL HELICOPTER MUSEUM INC,,GENERAL ACUTE CARE,,PO BOX 775,WEST MEMPHIS,AR,6615,2037671123,35.14311024,-90.18909851,1,1,9,1,61001533,201312,3733,-25400
6171701,OUACHITA CO. MEDICAL CENTER,AMERICAN SAVINGS FOUNDATION INC,,GENERAL ACUTE CARE,,185 MAIN ST,CAMDEN,AR,6051,8608328654,33.57582113,-92.83673933,2,3,9,1,300308972,201312,7198813,
572601,NORTH ARKANSAS REGIONAL MEDICAL CENTER,NEW BRITAIN INSTITUTE,,GENERAL ACUTE CARE,,20 HIGH ST,HARRISON,AR,6051,8602243155,36.23653136,-93.10913937,2,3,9,1,60646767,201406,3959933,3828507
1672560,STONE COUNTY MEDICAL CENTER,NEW BRITAIN MUSEUM OF AMERICAN ART INC,,CRITICAL ACCESS,,56 LEXINGTON ST,MOUNTAIN VIEW,AR,6052,8602290257,35.85658313,-92.08286453,2,3,9,1,61422234,201406,12229699,8910080
2372454,PIGGOTT COMMUNITY HOSPITAL,ROTARY INTERNATIONAL,,CRITICAL ACCESS,,30 HIGH ST,PIGGOTT,AR,6051,8602253020,36.39011947,-90.20483796,2,3,9,1,66043330,201406,87514,53287
1372543,BAPTIST HEALTH - HEBER SPRINGS,NEW BRITAIN YOUTH MUSEUM AT HUNGERFORD PARK,,CRITICAL ACCESS,,191 FARMINGTON AVE,HEBER SPRINGS,AR,6037,8608279064,35.48856958,-92.05798114,2,3,9,1,,,,
2472110,ST. VINCENT MORRILTON,NEW ENGLAND AIR MUSEUM,,CRITICAL ACCESS,,BRADLEY INTERNATIONAL AIRPORT,MORRILTON,AR,6096,8606233305,35.16801491,-92.72135132,4,3,9,1,,,,
3072205,UAMS MEDICAL CENTER,NEW ENGLAND AUTO & TRANSPORTATION MUSEUM INC,,GENERAL ACUTE CARE,,PO BOX 1545,LITTLE ROCK,AR,6013,8606733888,34.74902515,-92.32013731,1,1,9,1,562662460,201410,0,0
5000000,BAPTIST HEALTH MEDICAL CENTER - NORTH LITTLE ROCK,NEW ENGLAND CAROUSEL MUSEUM INC,,GENERAL ACUTE CARE,,95 RIVERSIDE AVE,LITTLE ROCK,AR,6010,8605855411,34.78365489,-92.22340916,2,3,9,1,61261386,201306,478801,422237
6972113,UNITED METHODIST BEHAVIORAL HEALTH SYSTEMS,NEW ENGLAND CENTER FOR CONTEMPORARY ART INC,,PSYCHIATRIC,,RT 169 BOX 302,MAUMELLE,AR,6234,,34.87643567,-92.39441325,4,15,9,1,60946834,,,
1971901,LEO N. LEVI NATIONAL ARTHRITIS HOSPITAL,NEW ENGLAND CIVIL WAR MUSEUM INC,,GENERAL ACUTE CARE,,PO BOX 153,HOT SPRINGS,AR,6066,8608703563,34.50989707,-93.05757749,2,13,9,1,412127368,201312,0,0
4671901,HOT SPRINGS REHABILITATION CENTER,NEWALLIANCE FOUNDATION ART GALLERY,,REHABILITATION,GATEWAY COMMUNITY COLLEGE,20 CHURCH STREET,HOT SPRINGS,AR,6510,,34.51212501,-93.05260787,1,9,9,1,66000798,,,
5971913,CHI ST VINCENT HOSPITAL HOT SPRINGS,NEWTOWN CHILDRENS MUSEUM INC,,GENERAL ACUTE CARE,,PO BOX 566,HOT SPRINGS,AR,6470,,34.46802567,-93.06627041,2,1,9,1,452171358,201312,142891,142891
6600000,BAPTIST HEALTH MEDICAL CENTER - HOT SPRING COUNTY,NORTH HAVEN HIGH SCHOOL HALL OF FAME INC,,GENERAL ACUTE CARE,,222 MAPLE AVE,MALVERN,AR,6473,2032391641,34.35877404,-92.7858884,2,9,9,1,61628409,201409,0,0
3971603,ARKANSAS DEPT. OF CORRECTION-DIAGNOSTIC UNIT,NORTHEAST STATES CIVILIAN CONSERVATION CORPS MUSEUM,,GENERAL ACUTE CARE,,166 CHESTNUT HILL ROAD,PINE BLUFF,AR,6076,8606843430,34.22219143,-92.08268605,4,13,9,1,,,,
6871603,JEFFERSON REGIONAL MEDICAL CENTER,NORTHWEST COMMUNITY COLLABORATIVE INC,,GENERAL ACUTE CARE,,PO BOX 1237,PINE BLUFF,AR,6759,,34.18773469,-92.0176802,3,5,9,1,454928276,201312,142060,139783
2772703,HEALTHSOUTH REHABILITATION HOSPITAL,NORWALK MUSEUM,,REHABILITATION,,41 NORTH MAIN ST,FAYETTEVILLE,AR,6854,2038660202,36.10909938,-94.15484504,1,1,9,1,,,,
331404,MEMORIAL HEALTH UNIV MED CEN,INC,FRIENDS OF THE NORWALK MUSEUMS INC,GENERAL ACUTE CARE,GENERAL ACUTE CARE,,5 EVERSLEY AVENUE,SAVANNAH,GA,6851,2038460525,32.03053088,-81.08886242,1,1,9,1,61000630,201312,0
9372703,VANTAGE POINT OF NORTHWEST ARKANSAS,NFA FOUNDATION INC,NORWICH FREE ACADEMY FOUNDATION,PSYCHIATRIC,,305 BROADWAY,FAYETTEVILLE,AR,6360,8604255560,36.12789076,-94.11985143,1,11,9,1,222678033,201406,3104222,3104222
9672762,NORTHWEST MEDICAL CENTER - WILLOW CREEK WOMEN'S HOSPITAL,NORWICH HERITAGE TRUST INC,,WOMEN,,PO BOX 185,SPRINGDALE,AR,6360,,36.13551027,-94.18621922,1,,9,1,61031625,201312,0,0
9454915,ASCENSION NE WISCONSIN ST. ELIZABETH HOSPITAL,OSBORNE HOMESTEAD MUSEUM,,GENERAL ACUTE CARE,,500 HAWTHORNE AVE,APPLETON,WI,6418,2037342513,44.24825124,-88.40250968,2,9,9,1,66000798,,,
3271953,MENA REGIONAL HEALTH SYSTEM,P.L.A.C.E. MULTICULTURAL CHILDREN'S MUSEUM & CREATIVE ARTS CENTER,,GENERAL ACUTE CARE,,2781 DIXWELL AVENUE,SUITES 201 & 202,MENA,AR,6518,2032888600,34.5890536,-94.22163124,2,9,9,1,,,
4972927,MERCY HOSPITAL BOONEVILLE,PEGAGUS GALLERY,,CRITICAL ACCESS,MIDDLESEX COMMUNITY COLLEGE,100 TRAINING HILL RD,BOONEVILLE,AR,6457,,35.14032192,-93.93517063,1,7,9,1,320159889,,,
5172855,MERCY HOSPITAL PARIS,PHILOMEN J HEWITT JR HONEYBEE MUSEUM AND RESEARCH CENTER,,CRITICAL ACCESS,,356 CARMEL HILL RD N,PARIS,AR,6751,,35.28929334,-93.72487855,4,5,9,1,222527127,,,
62572396,CROSSRIDGE COMMUNITY HOSPITAL,PLANETARIUM,,GENERAL ACUTE CARE,,409 MAIN STREET,WYNNE,AR,6357,,35.21955792,-90.78664054,2,11,9,1,,,,
64072205,BAPTIST HEALTH REHABILITATION INSTITUTE,PLANETARIUM,,REHABILITATION,,250 COLUMBUS BLVD,LITTLE ROCK,AR,6103,,34.74429608,-92.38181609,1,3,9,1,,,,
8053211,ASCENSION SACRED HEART REHAB INST,PRIMAR FARBE GALERIE,,REHABILITATION,,396 WILLETTS AVE,MILWAUKEE,WI,6385,8604420100,43.06145544,-87.88038438,2,11,9,1,,,,
14385622,SANTA CRUZ VALLEY HOSPITAL,PROMARE INC,,GENERAL ACUTE CARE,,PO BOX 450,GREEN VALLEY,AZ,6412,7139836988,31.80657111,-111.0100185,,,9,1,760699869,201312,467610,127965
62472160,BAPTIST HEALTH MEDICAL CENTER-STUTTGART,PRUDENCE CRANDALL MUSEUM,,GENERAL ACUTE CARE,,1 S CANTERBURY RD,STUTTGART,AR,6331,8605469916,34.5175108,-91.55829954,4,15,9,1,,,,
1042539,CASEY COUNTY HOSPITAL,QUINEBAUG VALLEY ENGINEERS ASSOCIATION EDGE & TA BRANCH 5 I,,CRITICAL ACCESS,,180 S PLUMB RD,LIBERTY,KY,6457,8608483921,37.31771681,-84.93317191,1,7,9,1,61426891,201312,36292,31460
5240336,MARCUM AND WALLACE MEMORIAL HOSPITAL,RAILROAD MUSEUM OF NEW ENGLAND INC,,CRITICAL ACCESS,,PO BOX 400,IRVINE,KY,6787,8602837245,37.7061971,-83.97727714,2,5,9,1,237229704,201312,258557,258557
3641653,HIGHLANDS REGIONAL MEDICAL CENTER,REAL ART WAYS INC,,GENERAL ACUTE CARE,,56 ARBOR STREET #1,PRESTONSBURG,KY,6106,8602321006,37.72901006,-82.76732008,1,3,9,1,60958072,201409,1240872,1240872
7140207,NORTON WOMEN'S AND KOSAIR CHILDREN'S HOSPITAL,REX BRASHER ASSOCIATION INC,,WOMEN,,PO BOX 72,LOUISVILLE,KY,6757,,38.23533009,-85.63293693,4,5,9,1,261458329,201404,0,0
9440215,SAINTS MARY & ELIZABETH HOSPITAL,RIDGEFIELD GUILD OF ARTISTS,,GENERAL ACUTE CARE,,PO BOX 552,LOUISVILLE,KY,6877,2034388863,38.17826438,-85.79391641,2,1,9,1,60987554,201412,184225,184225
10640207,THE BROOK - DUPONT,RIDGEFIELD LIBRARY ASSOCIATION INC,,PSYCHIATRIC,,472 MAIN ST,LOUISVILLE,KY,6877,2034382282,38.23569663,-85.62734095,2,1,9,1,60692378,201306,5414792,2399469
240031,BAPTIST HEALTH LA GRANGE,SAVAGE HILL MUSEUM INC,,GENERAL ACUTE CARE,,200 JOHN ST,LAGRANGE,KY,6831,,38.39489019,-85.37606515,4,1,9,1,61013226,,,
9401605,ADCARE HOSPITAL OF WORCESTER INC,SCIENCE CENTER OF EASTERN CT,,REHABILITATION,,33 GALLOWS LN,WORCESTER,MA,6320,8604420391,42.27641208,-71.79491979,1,11,9,1,,,,
8401730,EDITH NOURSE ROGERS MEMORIAL VETERANS HOSPITAL,UNIVERSITY OF NEW HAVEN,,MILITARY,UNIVERSITY OF NEW HAVEN,300 BOSTON POST ROAD,BEDFORD,MA,6516,,42.5047,-71.2744,2,9,9,1,60761704,201306,241404947,218936569
9501913,AMESBURY HEALTH CENTER,SEVEN BRIDGES FOUNDATION INC,,GENERAL ACUTE CARE,,114 JOHN ST,AMESBURY,MA,6831,2036250396,42.8484144,-70.93338025,4,1,9,1,61498953,201309,47654082,
1202215,BETH ISRAEL DEACONESS MEDICAL CENTER - WEST CAMPUS,BRANFORD ELECTRIC RAILWAY ASSOC INC,,GENERAL ACUTE CARE,,17 RIVER STREET,BOSTON,MA,6512,2034676927,42.3379,-71.1092,2,9,9,1,66088826,201312,1658428,1557387
9602130,ARBOUR HOSPITAL,THE,SOMERS MOUNTAIN INDIAN MUSEUM,PSYCHIATRIC,GENERAL ACUTE CARE,,PO BOX 55,BOSTON,MA,6071,8607494129,42.31581841,-71.11227314,2,13,9,1,61552484,,
8201930,BEVERLY HOSPITAL ADDISON GILBERT CAMPUS,SOUTHEAST CONNECTICUT HALL OF FAME,,GENERAL ACUTE CARE,,10 SANDY HOLLOW DR,GLOUCESTER,MA,6320,,42.6255,-70.6806,2,11,9,1,272306984,201412,0,0
11801542,VIBRA HOSPITAL OF WESTERN MASS CENTRAL CAMPUS,SOUTHWESTERN CONNECTICUT SCOUTING HERITAGE MUSEUM,,LONG TERM CARE,,4640 MAIN ST,LEICESTER,MA,6614,2033789154,42.20189928,-71.89882734,1,9,9,1,460905040,201312,0,0
13925027,WORCESTER RECOVERY CENTER AND HOSPITAL,SPARK PLUG COLLECTORS OF AMERICA INC,,PSYCHIATRIC,,9 HERITAGE LANE,WORCESTER,MA,6070,,42.27966719,-71.76906694,2,3,9,1,411984263,201312,0,0
4204730,HOULTON REGIONAL HOSPITAL,ST. MICHAELS UKRANIAN HERITAGE CENTER,,CRITICAL ACCESS,,555 GEORGE STREET,HOULTON,ME,6511,,46.13384624,-67.84362347,1,9,9,1,,,,
2804901,NORTHERN LIGHT INLAND HOSPITAL,STAMFORD CAMPUS ART GALLERY,,GENERAL ACUTE CARE,UNIVERSITY OF CONNECTICUT - STAMFORD,ONE UNIVERSITY PLACE,WATERVILLE,ME,6901,2032518400,44.54182648,-69.66149107,1,1,9,1,60772160,,,
3004330,MAINEGENERAL MEDICAL CENTER,STEPPING STONES MUSEUM FOR CHILDREN INC,,GENERAL ACUTE CARE,,303 WEST AVE,AUGUSTA,ME,6850,2038990606,44.31311976,-69.76843437,1,1,9,1,223199269,201312,8302033,7951249
2704901,MAINEGENERAL MEDICAL CENTER-SETON,STONY CREEK MUSEUM,,GENERAL ACUTE CARE,,84 THIMBLE ISLAND RD,WATERVILLE,ME,6405,2034819369,44.54919273,-69.65867356,2,9,9,1,,,,
2504538,SAINT ANDREWS HOSPITAL AND HEALTHCARE CENTER,STOWE-DAY FOUNDATION,,GENERAL ACUTE CARE,,77 FOREST STREET,BOOTHBAY HARBOR,ME,6105,,43.85034393,-69.6387693,1,3,9,1,,,,
4648624,MIDMICHIGAN MEDICAL CENTER-GLADWIN,SUBMARINE FORCE LIBRARY & MUSEUM ASSOC,,CRITICAL ACCESS,,PO BOX 928,GLADWIN,MI,6340,8604480893,43.97594367,-84.49388756,2,11,9,1,237281074,201312,732582,439193
7349868,HELEN NEWBERRY JOY HOSPITAL,TANTAQUIDGEON INDIAN MUSEUM,TANTAQUIDGEON INDIAN MUSEUM,CRITICAL ACCESS,,1819 NORWICH NEW LONDON TPKE,NEWBERRY,MI,6382,8608480594,46.35318009,-85.51565374,2,11,9,1,61259539,,,
1549862,MUNISING MEMORIAL HOSPITAL,TANTAQUIDGEON MEMORIAL MUSEUM INC,,CRITICAL ACCESS,,61 TEECOMWAS DRIVE,MUNISING,MI,6382,,46.42527107,-86.6251853,2,11,9,1,204256827,201312,0,0
10902167,BOURNEWOOD HOSPITAL,THEODORE A HUNGERFORD MEMORIAL MUSEUM ASSOCIATION INCORPORA,,PSYCHIATRIC,,PO BOX 297,BROOKLINE,MA,6791,,42.29831857,-71.14928568,4,5,9,1,60883256,201412,0,0
5848843,SAINT JOSEPH MERCY LIVINGSTON HOSPITAL,THOMAS AVERY HOUSE A/K/A SMITH-HARRIS HOUSE,,GENERAL ACUTE CARE,,33 SOCIETY RD.,HOWELL,MI,6357,,42.61558756,-83.9409904,2,11,9,1,,,,
1649242,HILLSDALE COMMUNITY HEALTH CENTER,THOMAS J WALSH ART GALLERY,,GENERAL ACUTE CARE,,1073 N BENSON RD,HILLSDALE,MI,6824,,41.91173869,-84.63300353,2,1,9,1,,,,
10048071,DMC SURGERY HOSPITAL,FAIRFIELD UNIVERSITY,,GENERAL ACUTE CARE,FAIRFIELD UNIVERSITY,1073 NORTH BENSON ROAD,MADISON HEIGHTS,MI,6824,2032544242,42.51788754,-83.12010727,2,1,9,1,60646623,201406,313770004,282265235
3049098,LAKELAND COMMUNITY HOSPITAL,WATERVLIET,TOLLAND JAIL MUSEUM,GENERAL ACUTE CARE,GENERAL ACUTE CARE,,52 TOLLAND GRN,WATERVLIET,MI,6084,8608709599,42.18488046,-86.24992583,2,13,9,1,,,
5648858,MCLAREN CENTRAL MICHIGAN,TORRINGTON AREA MODEL RAILROADERS,,GENERAL ACUTE CARE,,14 FOREST DRIVE,MOUNT PLEASANT,MI,6013,7324462179,43.59912248,-84.76141286,4,3,9,1,61557410,201412,0,0
7949431,SPECTRUM HEALTH LUDINGTON HOSPITAL,TRAVELERS SCIENCE DOME AT GENGRAS PLANETARIUM,,GENERAL ACUTE CARE,,950 TROUT BROOK DRIVE,LUDINGTON,MI,6119,,43.95814794,-86.43040938,1,3,9,1,,,,
14049079,BRONSON LAKEVIEW HOSPITAL,TREWORGY PLANETARIUM,,GENERAL ACUTE CARE,,75 GREENMANVILLE AVE,PAW PAW,MI,6355,,42.22129436,-85.89707006,2,11,9,1,,,,
13248427,DECKERVILLE COMMUNITY HOSPITAL,NATIONAL COAST GUARD MUSEUM ASSOCIATION INC,COAST GUARD MUSEUM,GENERAL ACUTE CARE,,394 TAUGWONK RD,DECKERVILLE,MI,6378,8604448511,43.52811921,-82.73424915,1,11,9,1,61621858,201312,212027,212027
14948202,HENRY FORD HOSPITAL,US MAYFLOWER CHARITY INC,,GENERAL ACUTE CARE,,20 RIVER RD,DETROIT,MI,6426,,42.36768678,-83.08472312,4,7,9,1,454611759,,,
4256007,MAYO CLINIC HEALTH SYS ALBT LE,U.S. NAVY SUBMARINE FORCE MUSEUM,,GENERAL ACUTE CARE,,PO BOX 571,ALBERT LEA,MN,6349,8003430079,43.6523607,-93.3727523,2,11,9,1,,,,
14155009,MAYO CLINIC HEALTH SYS CF,UCONN PLANETARIUM,,CRITICAL ACCESS,UNIVERSITY OF CONNECTICUT,NORTH EAGLEVILLE ROAD,CANNON FALLS,MN,6269,8604864900,44.48616464,-92.9032023,2,13,9,1,60772160,,,
5056031,MAYO CLINIC HEALTH SYS FAIRMNT,UNIONVILLE MUSEUM INC,,GENERAL ACUTE CARE,,15 SCHOOL ST,FAIRMONT,MN,6085,8606731787,43.63880146,-94.450437,2,3,9,1,222589034,201412,0,0
10856087,MAYO CLINIC HEALTH SYSTEM S F,VINTAGE RADIO AND COMMUNICATIONS MUSEUM OF CONNECTICUT INC,,CRITICAL ACCESS,,115 PIERSON LN,SPRINGFIELD,MN,6095,8606832903,44.24661914,-94.97108361,2,3,9,1,61356178,201312,55287,49480
8665201,HARRY S. TRUMAN MEMORIAL VETERANS HOSPITAL,WADSWORTH ATHENEUM MUSEUM OF ART,WADSWORTH ATHENEUM MUSEUM OF ART,GENERAL ACUTE CARE,,600 MAIN ST,COLUMBIA,MO,6103,8602782670,38.93666726,-92.32905785,1,3,9,1,60653111,201406,66761998,19020471
5158554,VIBRA HOSPITAL OF CENTRAL DAKOTAS,WARD-HEITMAN MUSEUM FOUNDATION INC,,LONG TERM CARE,,PO BOX 573,MANDAN,ND,6516,2039379823,46.8418693,-100.9076977,2,9,9,1,61450014,201406,31782,22982
2458533,JACOBSON MEMORIAL HOSPITAL & CARE CENTER,WEST CAMPUS COMMUNITY GALLERY,,CRITICAL ACCESS,NORWALK COMMUNITY COLLEGE,188 RICHARDS AVENUE,ELGIN,ND,6854,,46.40732581,-101.8414635,1,1,9,1,66000798,,,
1446011,COMMUNITY HOSPITAL OF ANDERSON AND MADISON COUNTY,TRINITY COLLEGE,,GENERAL ACUTE CARE,TRINITY COLLEGE,300 SUMMIT STREET,ANDERSON,IN,6106,8602975232,40.13064559,-85.69320918,1,3,9,1,60646927,201306,235182598,170279255
9446601,MEMORIAL HOSPITAL OF SOUTH BEND,WILLIAM BENTON MUSEUM OF ART,WILLIAM BENTON MUSEUM OF ART,GENERAL ACUTE CARE,UNIVERSITY OF CONNECTICUT,245 GLENBROOK RD,SOUTH BEND,IN,6269,8604864520,41.68405529,-86.25157885,2,13,9,1,60772160,,,
389128,COMPLEX CARE HOSPITAL AT TENAYA,WINDHAM TEXTILE AND CHILDREN INC,,LONG TERM CARE,,157 UNION AND MAIN ST,LAS VEGAS,NV,6226,8604562178,36.20553077,-115.2503564,3,15,9,1,61137719,201312,84007,79696
489119,DESERT SPRINGS HOSPITAL MEDICAL CENTER,WINDSOR LOCKS WAR VETERANS MEMORIAL INC,,GENERAL ACUTE CARE,,PO BOX 5,LAS VEGAS,NV,6083,,36.11395958,-115.1245052,2,3,9,1,66033340,201312,52049,
12119124,EASTERN REGIONAL MEDICAL CENTER,WITCH'S DUNGEON CLASSIC MOVIE MUSEUM,,GENERAL ACUTE CARE,,90 BATTLE ST,PHILADELPHIA,PA,6010,8605838306,40.01881298,-75.09946405,2,3,9,1,,,,
13619107,THOMAS JEFFERSON UNIVERSITY HOSPITAL,YALE UNIVERSITY,,GENERAL ACUTE CARE,YALE UNIVERSITY,1080 CHAPEL STREET,PHILADELPHIA,PA,6510,,39.94970838,-75.15794605,1,9,9,1,60646973,201306,7943643646,3688471185
20819104,PENN PRESBYTERIAN MEDICAL CENTER,YALE COLLECTION OF MUSICAL,,GENERAL ACUTE CARE,,15 HILLHOUSE AVE,PHILADELPHIA,PA,6511,2034320822,39.95887248,-75.19926368,1,9,9,1,,,,
21419130,ST JOSEPHS HOSPITAL,YALE UNIVERSITY,,GENERAL ACUTE CARE,YALE UNIVERSITY,170 WHITNEY AVENUE,PHILADELPHIA,PA,6511,,39.97148609,-75.16319015,1,9,9,1,60646973,201306,7943643646,3688471185
25019104,VA MEDICAL CENTER - PHILADELPHIA,YALE UNIVERSITY,,MILITARY,YALE UNIVERSITY,1111 CHAPEL STREET,PHILADELPHIA,PA,6520,2034325050,39.94788477,-75.20007509,1,9,9,1,60646973,201306,7943643646,3688471185
6017822,GEISINGER MEDICAL CENTER,YALE UNIVERSITY,,GENERAL ACUTE CARE,YALE UNIVERSITY,15 HILLHOUSE AVE,DANVILLE,PA,6511,2034320822,40.96814496,-76.60525611,1,9,9,1,60646973,201306,7943643646,3688471185
182330115,NORTHSIDE HOSPITAL - CHEROKEE,YOUTH MUSEUM EXHIBIT COLLABORATIVE INC,,GENERAL ACUTE CARE,,MATHEWS PARK 303 WEST AVENUE,CANTON,GA,6850,,34.229238,-84.466259,1,,9,1,341675380,201312,198403,198403
185631620,SOUTHWELL MEDICAL,A CAMPUS OF TRMC,1749 COURT HOUSE MUSEUM,GENERAL ACUTE CARE,GENERAL ACUTE CARE,,132 SOUTH STREET,ADEL,GA,2360,5088304075,31.10819893,-83.42737285,2,23,25,1,46001271,,
5759501,NORTHERN MONTANA HOSPITAL,888 WOMENS HISTORY PROJECT INC,,GENERAL ACUTE CARE,,69 SPRING ST,HAVRE,MT,2141,6177383381,48.53807731,-109.6858178,1,17,25,1,300113840,201312,67603,0
6929425,MUSC MEDICAL CENTER,ADDISON GALLERY OF AMERICAN ART,,GENERAL ACUTE CARE,,PHILLIPS ACADEMY,CHARLESTON,SC,1810,9787494015,32.78588204,-79.94792136,2,9,25,1,,,,
189830346,VERITAS COLLABORATIVE GEORGIA,ADOLPHUS BUSCH HALL,,PSYCHIATRIC,,29 KIRKLAND STREET,ATLANTA,GA,02138��,6174959400,33.9242473,-84.33106507,1,17,25,1,,,,
522835,PAGE MEMORIAL HOSPITAL,AIR TRANSPORT MUSEUM INC,,CRITICAL ACCESS,,PO BOX 715,LURAY,VA,1845,,38.66325,-78.468518,2,9,25,1,43313358,,,
14244266,UH PORTAGE - ROBINSON MEMORIAL HOSPITAL,ALBERT J THOMAS LIBRARY MUSEUM,,GENERAL ACUTE CARE,,425 MAIN ST,RAVENNA,OH,1543,5088866172,41.17605775,-81.2490173,4,27,25,1,,,,
6878746,DELL CHILDREN'S MEDICAL CENTER,ALDEN PLANETARIUM,,CHILDREN,,222 HARRINGTON WAY,AUSTIN,TX,1604,,30.30311083,-97.70702246,1,27,25,1,,,,
19676104,COOK CHILDREN'S MEDICAL CENTER,SPRINGFIELD MUSEUMS CORPORATION,,CHILDREN,,21 EDWARDS ST,FORT WORTH,TX,1103,,32.73707173,-97.34140504,1,13,25,1,,,,
898356,ARBOR HEALTH MORTON GENERAL HOSPITAL,AMELIA PARK CHILDRENS MUSEUM INC,,CRITICAL ACCESS,,PO BOX 931,MORTON,WA,1086,4135724014,46.55567481,-122.2803544,2,13,25,1,43271875,201406,152204,152204
194246032,INDIANA SPINE HOSPITAL,LLC,AMERICAN HAND FIRE ENGINE SOCIETY INC,SPECIAL,CHILDREN,,0 MORGAN AVE,CARMEL,IN,1951,5084653948,39.98041995,-86.15347262,2,9,25,1,43429238,201312,5879
13753045,ASCENSION SE WISCONSIN HOSPITAL - ELMBROOK CAMPUS,AMERICAN TEXTILE CHILDREN,AMERICAN TEXTILE CHILDREN,GENERAL ACUTE CARE,,491 DUTTON ST,BROOKFIELD,WI,1854,9784410400,43.0593759,-88.15451943,2,17,25,1,42276089,201312,2484375,1831657
6753132,ASCENSION SE WISCONSIN HOSPITAL - FRANKLIN CAMPUS,AMESBURY CARRIAGE MUSUEM INC,,GENERAL ACUTE CARE,,PO BOX 252,FRANKLIN,WI,1913,,42.86001258,-87.9540681,2,9,25,1,43021666,201212,15769,-2874
8153210,ASCENSION SE WISCONSIN HOSPITAL ST JOSEPH,AMESBURY HAT MUSEUM INC,,GENERAL ACUTE CARE,,1 CARPENTER ST,MILWAUKEE,WI,1913,9783385359,43.07412025,-87.9760734,2,9,25,1,43722912,,,
6354476,ASCENSION ST CLARES HOSPITAL,AMHERST COLLEGE TRUSTEES,,GENERAL ACUTE CARE,AMHERST COLLEGE,11 BARRETT HILL ROAD,WESTON,WI,1002,4135422350,44.89018231,-89.58014599,2,15,25,1,42103542,201306,694033920,356118724
7853215,ASCENSION ST FRANCIS HOSPITAL,AMHERST CHILDREN AT THE STRONG HOUSE,,GENERAL ACUTE CARE,,67 AMITY STREET,MILWAUKEE,WI,1002,4132560678,42.98565775,-87.93465729,2,15,25,1,46037710,201312,43685,43685
9254501,ASCENSION ST MARYS HOSPITAL,AMY H. CARBERRY FINE ARTS GALLERY,,GENERAL ACUTE CARE,SPRINGFIELD TECHNICAL COMMUNITY COLLEGE,ONE ARMORY SQUARE SUITE 1,RHINELANDER,WI,1102,,45.63947041,-89.37482659,1,13,25,1,46002284,,,
17545409,MIAMI VALLEY HOSPITAL,ANCIENT AND HONORABLE ARTILLERY,,GENERAL ACUTE CARE,,CONGRESS ST,DAYTON,OH,20108,6172271638,39.7448932,-84.18590861,1,25,25,1,,,,
10354481,ASCENSION ST MICHAELS HOSPITAL,ANIMAGIC MUSEUM OF ANIMATION,,GENERAL ACUTE CARE,,77 MAIN ST,STEVENS POINT,WI,1238,4138416679,44.52643184,-89.56709621,4,3,25,1,,,,
15454495,ASPIRUS RIVERVIEW HSPTL ASSOC,BOURNE HISTORICAL SOCIETY,,GENERAL ACUTE CARE,,24 APTUCXET RD,WISCONSIN RAPIDS,WI,2532,5087599487,44.38175803,-89.82988944,2,1,25,1,42578062,201312,67649,66312
5754401,ASPIRUS WAUSAU HOSPITAL,AQUINNAH CULTURAL CENTER,,GENERAL ACUTE CARE,,35 AQUINNAH CIR,WAUSAU,WI,2535,5086457900,44.96584185,-89.66789021,4,7,25,1,,,,
13253121,AURORA LAKELAND MED CTR,ARLINGTON NATURAL RESOURCES,,GENERAL ACUTE CARE,,730 MASSACHUSETTS AVE,ELKHORN,WI,2476,7816461000,42.66189503,-88.49619199,2,17,25,1,,,,
13653027,AURORA MED CENTER-WASHINGTON COUNTY,ARMENIAN LIBRARY AND MUSEUM OF AMERICA INC,ARMENIAN LIBRARY AND MUSEUM OF AMERICA,GENERAL ACUTE CARE,,65 MAIN STREET,HARTFORD,WI,2472,6179262562,43.31840584,-88.36246156,2,17,25,1,222778232,201406,1556231,1085191
5153142,AURORA MED CTR KENOSHA,ARNHEIM GALLERY,,GENERAL ACUTE CARE,MASSACHUSETTS COLLEGE OF ART AND DESIGN,621 HUNTINGTON AVE,KENOSHA,WI,2115,,42.56939682,-87.93546502,1,25,25,1,46002284,,,
6154241,AURORA MED CTR MANITOWOC CTY,ARNO MARIS GALLERY,,GENERAL ACUTE CARE,WESTFIELD STATE UNIVERSITY,577 WESTERN AVE,TWO RIVERS,WI,1086,4135724400,44.12536783,-87.61945613,2,13,25,1,43062617,,,
188346176,MHP MEDICAL CENTER,ARNOLD B. TOFIAS INDUSTRIAL ARCHIVES,,GENERAL ACUTE CARE,,320 WASHINGTON STREET,SHELBYVILLE,IN,2357,5085651403,39.560356,-85.785817,2,5,25,1,,,,
35579408,COVENANT CHILDREN'S HOSPITAL,ARROWHEAD MUSEUM,,CHILDREN,,780 HOLMES RD,LUBBOCK,TX,1201,4134421793,33.57340325,-101.900592,4,3,25,1,,,,
183446992,PARKVIEW WABASH HOSPITAL,SISTERS OF SAINT ANN ANNA MARIA COLLEGE,,GENERAL ACUTE CARE,ANNA MARIA COLLEGE,50 SUNSET LANE,WABASH,IN,1612,5088493330,40.820937,-85.823901,4,27,25,1,42002060,201406,39135583,37706248
187746307,NEURO BEHAVIORAL HOSPITAL,ART COMPLEX AT DUXBURY,,PSYCHIATRIC,,189 ALDEN ST,CROWN POINT,IN,2332,7819346634,41.44880307,-87.33726012,2,23,25,1,,,,
194147586,PERRY COUNTY MEMORIAL HOSPITAL,WESTERN NEW ENGLAND UNIVERSITY,,GENERAL ACUTE CARE,WESTERN NEW ENGLAND UNIVERSITY,1215 WILBRAHAM RD,TELL CITY,IN,1119,,37.967931,-86.731667,1,13,25,1,42108376,201306,144032289,136698005
14044481,ST JOSEPH HEALTH CENTER,ARTS INSTITUTE GROUP OF THE MERRIMACK VALLEY INC,,GENERAL ACUTE CARE,,39 COUNTY ROAD,WARREN,OH,1810,,41.23091175,-80.77715528,2,9,25,1,43442061,201407,0,0
2944482,TRUMBULL MEMORIAL HOSPITAL,ARUNAH HILL NATURAL SCIENCE CENTER INC,,GENERAL ACUTE CARE,,218 TROUBLE STREET,WARREN,OH,1026,4136340180,41.23585592,-80.79877826,4,15,25,1,43281416,201312,0,0
3397031,PROVIDENCE HOOD RIVER MEMORIAL HOSPITAL,ARUNAH HILL PLANETARIUM,,CRITICAL ACCESS,,PO BOX 16,HOOD RIVER,OR,1373,,45.70483197,-121.5239086,4,15,25,1,,,,
9360901,RIVERSIDE MEDICAL CENTER,ATTLEBORO AREA INDUSTRIAL MUSEUM INC,,GENERAL ACUTE CARE,,42 UNION STREET,KANKAKEE,IL,2703,5082223918,41.12508686,-87.88189889,2,5,25,1,510201143,201404,112960,
497845,BLUE MOUNTAIN HOSPITAL,ATTLEBORO MUSEUM INC,,CRITICAL ACCESS,,86 PARK ST,JOHN DAY,OR,2703,5082222644,44.41711272,-118.9596915,2,5,25,1,46004922,201405,662335,452391
2912601,VASSAR BROTHERS MEDICAL CENTER,AUDIO RECRODING MUSEUM OF SCIENCE,,GENERAL ACUTE CARE,,248A OLD LYMAN RD,POUGHKEEPSIE,NY,1075,4135330900,41.69385894,-73.93578611,2,15,25,1,311804437,,,
3214215,ERIE COUNTY MEDICAL CENTER,PRESIDENT AND FELLOWS OF HARVARD COLLEGE,,GENERAL ACUTE CARE,HARVARD UNIVERSITY,32 QUINCY STREET,BUFFALO,NY,2138,6174959400,42.9250771,-78.83114577,1,17,25,1,42103580,201306,83181439574,5840349457
5514607,STRONG MEMORIAL HOSPITAL,BABSON MAP AND GLOBE MUSEUM,,GENERAL ACUTE CARE,,MAP HILL DRIVE,ROCHESTER,NY,2157,7812351200,43.12280887,-77.62425943,,,25,1,,,,
6411030,NORTH SHORE UNIVERSITY HOSPITAL,BAKALAR & PAINE GALLERIES,,GENERAL ACUTE CARE,MASSACHUSETTS COLLEGE OF ART AND DESIGN,621 HUNTINGTON AVE,MANHASSET,NY,2115,6178797337,40.77763592,-73.70161094,1,25,25,1,46002284,,,
9344221,EDWIN SHAW REHABILITATION INSTITUTE,BARE COVE FIRE MUSEUM INC,,REHABILITATION,,45 BARE COVE PARK DRIVE,CUYAHOGA FALLS,OH,2043,7817490028,41.13214627,-81.47737547,2,23,25,1,42614705,201303,0,0
6511554,NASSAU UNIVERSITY MEDICAL CENTER,TOWN OF BARNSTABLE,,GENERAL ACUTE CARE,,367 MAIN ST,EAST MEADOW,NY,2601,5083628448,40.72625551,-73.55373802,1,1,25,1,43006540,201312,40955,40955
7011510,SOUTH NASSAU COMMUNITIES HOSPITAL,BARTLETT MUSEUM INC,,GENERAL ACUTE CARE,,PO BOX 692,OCEANSIDE,NY,1913,9783884528,40.650998,-73.63083944,2,9,25,1,42445423,201403,0,0
8313210,UNIVERSITY HOSPITAL SUNY HEALTH SCIENCE CENTER,AMHERST COLLEGE TRUSTEES,,GENERAL ACUTE CARE,AMHERST COLLEGE,BOLTWOOD AVENUE,SYRACUSE,NY,1002,,43.04189732,-76.13983046,2,15,25,1,42103542,201306,694033920,356118724
8712550,ST. LUKE'S CORNWALL HOSPITAL - NEWBURGH CAMPUS,USS MASSACHUSETTS MEMORIAL COMM INC,USS MASSACHUSETTS MEMORIAL COMMITTEE,GENERAL ACUTE CARE,,5 WATER STREET BATTLESHIP COVE,NEWBURGH,NY,2721,5086781905,41.50342485,-74.01456558,1,5,25,1,42377049,201409,2797250,2582076
3303038,PARKLAND MEDICAL CENTER,BAY STATE MODEL RAILROAD MUSEUM INC,,GENERAL ACUTE CARE,,760 SOUTH ST,DERRY,NH,2131,6173274341,42.87677117,-71.31666154,1,25,25,1,30472947,201312,63477,
9310924,ORANGE REGIONAL MEDICAL CENTER,WHEATON COLLEGE,,GENERAL ACUTE CARE,WHEATON COLLEGE,501 COLLEGE AVE,MIDDLETOWN,NY,60187,,41.44191408,-74.36831227,2,43,17,4,362182171,201306,303501365,166866005
9912180,SAMARITAN HOSPITAL,BENTLEY LIBRARY ARTSPACE,,GENERAL ACUTE CARE,NORTHERN ESSEX COMMUNITY COLLEGE,100 ELLIOTT STREET,TROY,NY,1830,,42.73329249,-73.672164,2,9,25,1,42498732,,,
10713676,CANTON-POTSDAM HOSPITAL,BERKSHIRE ART ASSOCIATION INC,,GENERAL ACUTE CARE,,PO BOX 385,POTSDAM,NY,1202,,44.67651062,-74.98211632,1,3,25,1,42716607,201312,8476,8476
15298250,PEACEHEALTH PEACE ISLAND MEDICAL CENTER,BERKSHIRE COUNTY MUSEUM OF FIREFIGHTING INC,,CRITICAL ACCESS,,BARKER RD,FRIDAY HARBOR,WA,1201,,48.52677897,-123.0296011,1,3,25,1,223019883,,,
10110960,MONTEFLORE NYACK HOSPITAL,TRUSTEES OF THE BERKSHIRE MUSEUM,THE BERKSHIRE MUSEUM,GENERAL ACUTE CARE,,39 SOUTH ST,NYACK,NY,1201,4134437171,41.09621147,-73.92601813,1,3,25,1,42103878,201406,5646910,3100231
10912866,SARATOGA HOSPITAL,BERKSHIRE SCENIC RAILWAY MUSEUM INC,,GENERAL ACUTE CARE,,10 WILLOW CREEK RD,SARATOGA,NY,1240,4136372210,43.08588022,-73.79678273,3,3,25,1,222531186,201312,137445,134744
1060035,NORTHSHORE UNIVERSITY HEALTHSYSTEM DBA HIGHLAND PARK HOSPITAL,THE BIDWELL HOUSE INC,BIDWELL HOUSE,GENERAL ACUTE CARE,,PO BOX 537,HIGHLAND PARK,IL,1245,4135286888,42.19110677,-87.80841495,4,,25,1,222864958,201312,308305,113964
9960048,ADVOCATE CONDELL MEDICAL CENTER,BLACKBURN TAVERN,,GENERAL ACUTE CARE,,2 MAIN ST,LIBERTYVILLE,IL,1930,9782821919,42.274235,-87.95769974,2,9,25,1,,,,
12860010,ADVOCATE GOOD SHEPHERD HOSPITAL,BLUE HILL ADVENTURES & QUARRY MUSEUM,,GENERAL ACUTE CARE,,PO 843,BARRINGTON,IL,2090,,42.19538237,-88.17281887,2,21,25,1,270067264,201312,14652,14652
1961401,GALESBURG COTTAGE HOSPITAL,BLUE HILL OBSERVATORY SCIENCE CENTER INC,BLUE HILL OBSERVATORY SCIENCE CENTER,GENERAL ACUTE CARE,,PO BOX 500,GALESBURG,IL,2186,6176960562,40.95579903,-90.36576026,2,21,25,1,222517414,201308,222457,199813
3361401,ST MARY MEDICAL CENTER,BOOTT COTTON MILLS MUSEUM,,GENERAL ACUTE CARE,,115 JOHN ST,GALESBURG,IL,1852,9789705000,40.98671028,-90.36024492,2,17,25,1,,,,
4960099,MIDWESTERN REGION MED CENTER,COLLEGE OF OUR LADY OF THE ELMS,,GENERAL ACUTE CARE,COLLEGE OF OUR LADY OF THE ELMS,291 SPRINGFIELD STREET,ZION,IL,1013,,42.44925783,-87.82783284,2,13,25,1,42225850,201306,39013054,39013054
1021205,KENNEDY KREIGER INSTITUTE,PROPRIETORS OF THE BOSTON ATHENAEUM,,GENERAL ACUTE CARE,,10 1/2 BEACON ST,BALTIMORE,MD,2108,6172270270,39.29928098,-76.59281871,1,25,25,1,42104852,201309,32845165,3907008
2321202,MERCY MEDICAL CENTER,BOSTON CHILDREN'S MUSEUM,,GENERAL ACUTE CARE,,308 CONGRESS STREET,BALTIMORE,MD,2210,6174268855,39.29292155,-76.61288423,1,25,25,1,,,,
3721215,SINAI HOSPITAL OF BALTIMORE,BOSTON HISTORY CENTER AND MUSEUM INC,,GENERAL ACUTE CARE,,75 FEDERAL ST,BALTIMORE,MD,2110,,39.35230251,-76.66209015,1,25,25,1,43027858,,,
4121201,UNIVERSITY OF MARYLAND MEDICAL CENTER,BOSTON MINUTEMEN DIVISION,,GENERAL ACUTE CARE,,162 CLEAR POND DRIVE,BALTIMORE,MD,2081,,39.28790857,-76.62492593,2,21,25,1,264384583,201312,0,0
11614843,ST. JAMES HOSPITAL,BOSTON MUSEUM,,GENERAL ACUTE CARE,,55 COURT ST,HORNELL,NY,2108,6177232500,42.31387327,-77.6606131,1,25,25,1,,,,
4821224,JOHNS HOPKINS BAYVIEW MEDICAL CENTER,BOSTON TEA PARTY SHIP AND MUSEUM,,GENERAL ACUTE CARE,,CONGRESS STREET BRG,BALTIMORE,MD,2210,6173381773,39.29067881,-76.54677819,1,25,25,1,,,,
2603743,VALLEY REGIONAL HOSPITAL,TRUSTEES OF BOSTON UNIVERSITY,BOSTON UNIVERSITY ART GALLERY,GENERAL ACUTE CARE,BOSTON UNIVERSITY,855 COMMONWEALTH AVENUE,CLAREMONT,NH,2215,6173533329,43.38458975,-72.34069671,1,25,25,1,42103547,201306,2999999997,0
1403841,HAMPSTEAD HOSPITAL,BOSTONIAN SOCIETY CORP,,PSYCHIATRIC,,206 WASHINGTON STREET,HAMPSTEAD,NH,2109,6177201713,42.87166334,-71.15420708,1,25,25,1,42103906,201312,3014253,1435800
1303867,FRISBIE MEMORIAL HOSPITAL,BRANT GALLERY,,GENERAL ACUTE CARE,MASSACHUSETTS COLLEGE OF ART AND DESIGN,621 HUNTINGTON AVE,ROCHESTER,NH,2115,,43.2975566,-70.96016086,1,25,25,1,46002284,,,
1003047,CROTCHED MOUNTAIN REHABILITATION CENTER,BRAZIALIAN CULTURAL CENTER OF NEW ENGLAND,,REHABILITATION,,127 AMORY ST,GREENFIELD,NH,2139,6175475343,42.9718711,-71.87453591,1,17,25,1,,,,
2303060,SOUTHERN NEW HAMPSHIRE MEDICAL CENTER,BRICKBOTTOM ARTISTS ASSOCIATION INC,,GENERAL ACUTE CARE,,1 FITCHBURG STREET C111,NASHUA,NH,2143,6177763410,42.75627984,-71.4613747,2,17,25,1,43052526,201412,27680,27680
2403061,ST JOSEPH HOSPITAL,GEORGETOWN HISTORICAL SOCIETY,,GENERAL ACUTE CARE,,108 E MAIN ST,NASHUA,NH,1833,9783522208,42.74923911,-71.48021205,2,9,25,1,10359121,201412,0,0
3003103,ELLIOT HOSPITAL CITY OF MANCHESTER,THE BULFUNCH FUND INC,,GENERAL ACUTE CARE,,131 CENTER BRIDGE RD,MANCHESTER,NH,1523,9783655570,42.983954,-71.438,2,27,25,1,300515780,,,
103301,CONCORD HOSPITAL,PRESIDENT AND FELLOWS OF HARVARD COLLEGE,,GENERAL ACUTE CARE,HARVARD UNIVERSITY,32 QUINCY STREET,CONCORD,NH,2138,6174959400,43.19774414,-71.5620204,1,17,25,1,42103580,201306,83181439574,5840349457
1203235,FRANKLIN REGIONAL HOSPITAL,THE CAHOON MUSEUM OF AMERICAN ART INC,,GENERAL ACUTE CARE,,4676 FALMOUTH RD,FRANKLIN,NH,2635,5084287581,43.44840426,-71.64455273,1,1,25,1,42802203,201312,481783,424302
11811968,UNIVERSITY HOSPITAL STONEY BROOK SOUTHAMPTON HOSPITAL,CALVIN COOLIDGE PRESIDENTIAL LIBRARY & MUSEUM,,GENERAL ACUTE CARE,,20 WEST ST,SOUTHAMPTON,NY,1060,4135871014,40.88505974,-72.37994406,2,15,25,1,,,,
11911901,EASTERN LONG ISLAND HOSPITAL,CAPE COD CENTER FOR THE ARTS INC,,GENERAL ACUTE CARE,,PO BOX 866,GREENPORT,NY,2638,5083853618,41.11036057,-72.36112732,2,1,25,1,43334834,201412,1775970,1774551
12211743,HUNTINGTON HOSPITAL,CHILDRENS DISCOVERY MUSEUM OF CAPE COD INC,CAPE COD CHILDREN'S MUSEUM,GENERAL ACUTE CARE,,577 GREAT NECK RD S,HUNTINGTON,NY,2649,5085398788,40.87932924,-73.41619953,2,1,25,1,43132922,201403,398142,359039
12311706,SOUTHSIDE HOSPITAL,CAPE COD MARITIME MUSEUM INC,,GENERAL ACUTE CARE,,PO BOX 443,BAY SHORE,NY,2601,5087751723,40.72596015,-73.24115864,1,1,25,1,43438295,201312,240094,230142
9140504,SAINT JOSEPH HOSPITAL,CAPE COD MUSEUM OF ART INC,,GENERAL ACUTE CARE,,60 HOPE LN,LEXINGTON,KY,2638,5083854477,38.03233973,-84.52329929,2,1,25,1,42731140,201312,612625,582579
9540502,SHRINERS HOSPITAL FOR CHILDREN,CAPE COD MUSEUM OF NATURAL HISTORY INC,,CHILDREN,,869 RTE 6A,LEXINGTON,KY,2631,5088963867,38.02270661,-84.47269852,4,1,25,1,42262299,201312,819575,727711
12810901,GOOD SAMARITAN HOSPITAL - WEST ISLIP,CAPE COD POTTERS INC,,GENERAL ACUTE CARE,,PO BOX 76,WEST ISLIP,NY,2633,5089455044,40.69388013,-73.29439462,2,1,25,1,42740921,201412,0,0
13112401,HEALTHALLIANCE HOSPITAL - BROADWAY CAMPUS,CAPTAIN FORBES HOUSE MUSEUM,,GENERAL ACUTE CARE,,215 ADAMS ST,KINGSTON,NY,2186,2152326778,41.92665841,-73.99484207,2,21,25,1,,,,
13212428,ELLENVILLE REGIONAL HOSPITAL,CAPTAIN JOHN KENDRICK MARITIME,,CRITICAL ACCESS,,124 MAIN ST,ELLENVILLE,NY,2571,5082912274,41.73262979,-74.37903498,2,23,25,1,,,,
13614513,NEWARK-WAYNE COMMUNITY HOSPITAL,CARDINAL SPELLMAN PHILATELIC MUSEUM INC,,GENERAL ACUTE CARE,,235 WELLESLEY ST,NEWARK,NY,2493,6178946735,43.06049938,-77.10166991,2,17,25,1,42280409,201312,358148,284476
14110522,ST. JOHN'S RIVERSIDE HOSPITAL - DOBBS FERRY,REGIS COLLEGE,,GENERAL ACUTE CARE,REGIS COLLEGE,235 WELLESLEY ST,DOBBS FERRY,NY,2493,7817687070,41.01439225,-73.86191965,2,,25,1,42104451,201406,65964266,65230322
14510591,PHELPS MEMORIAL HOSPITAL CENTER,CAROLE CALO GALLERY,,GENERAL ACUTE CARE,STONEHILL COLLEGE,320 WASHINGTON STREET,SLEEPY HOLLOW,NY,2357,,41.10900706,-73.86308776,,,25,1,43092393,,,
11442754,TWIN LAKES REGIONAL MEDICAL CENTER,WENTWORTH INSTITUTE OF TECHNOLOGY,,GENERAL ACUTE CARE,WENTWORTH INSTITUTE OF TECHNOLOGY,ANNEX CENTRAL 1ST FLOOR,LEITCHFIELD,KY,2115,,37.4725153,-86.28859309,1,25,25,1,41958460,201306,154680919,134583920
7341101,OUR LADY OF BELLEFONTE HOSPITAL,PRESIDENT AND FELLOWS OF HARVARD COLLEGE,,GENERAL ACUTE CARE,HARVARD UNIVERSITY,32 QUINCY STREET,ASHLAND,KY,2138,6174959400,38.50845432,-82.69261651,1,17,25,1,42103580,201306,83181439574,5840349457
14810595,BLYTHEDALE CHILDREN'S HOSPITAL,CENTER FOR LOWELL LIBRARY,,CHILDREN,UNIVERSITY OF MASSACHUSETTS,1 UNIVERSITY AVE,VALHALLA,NY,1854,,41.07484754,-73.79997224,2,17,25,1,46002284,,,
2962650,PASSAVANT AREA HOSPITAL,CENTER FOR VISUAL ARTS IN THE PUBLIC INTEREST INC,,GENERAL ACUTE CARE,,19 PLEASANTVIEW AVE,JACKSONVILLE,IL,1106,,39.74608499,-90.26048664,2,13,25,1,223061716,201312,0,0
3421740,BROOK LANE HEALTH SERVICES,WILLIAMS COLLEGE,,PSYCHIATRIC,WILLIAMS COLLEGE,880 MAIN ST,HAGERSTOWN,MD,1267,,39.6769953,-77.6105994,4,3,25,1,42104847,201306,294275043,294275043
2640444,GARRARD COUNTY HOSPITAL,CHARLES HAYDEN PLANETARIUM,,GENERAL ACUTE CARE,,1 SCIENCE PARK,LANCASTER,KY,2114,,37.62202606,-84.58515725,1,25,25,1,,,,
15110532,WESTCHESTER MEDICAL CENTER,CHARLES RIVER MUSEUM OF INDUSTRY AND INNOVATION INC,CHARLES RIVER MUSEUM OF INDUSTRY,GENERAL ACUTE CARE,,154 MOODY ST,VALHALLA,NY,2453,,41.08609075,-73.80495477,1,17,25,1,42696416,201312,612100,588857
15310466,MONTEFIORE MEDICAL CENTER - MOSES DIVISION,CHATHAM MARCONI MARITIME CENTER INC,,GENERAL ACUTE CARE,,PO BOX 421,BRONX,NY,2650,5089458889,40.88007926,-73.8798267,2,1,25,1,371445768,201312,175376,164645
2440601,FRANKFORT REGIONAL MEDICAL CENTER,CHESTER FOUNDATION,,LONG TERM CARE,,10 PROSPECT ST,FRANKFORT,KY,1011,4133547878,38.16066175,-84.9068937,4,3,25,1,,,,
15610467,NORTH CENTRAL BRONX HOSPITAL,CHILD'S PLAY MUSEUM,,GENERAL ACUTE CARE,,293 LIBBEY INDUSTRIAL PKWY,BRONX,NY,2189,7813377920,40.8803656,-73.88105711,2,21,25,1,,,,
3521742,MERITUS MEDICAL CENTER,CHILDREN S MUSEUM LOWELL INC,,GENERAL ACUTE CARE,,11 KEARNEY SQ,HAGERSTOWN,MD,1852,9784599899,39.62219281,-77.68256295,2,17,25,1,43418416,,,
16111212,BROOKDALE HOSPITAL MEDICAL CENTER,CHILDRENS GLOBAL DISCOVERY MUSEUM,,GENERAL ACUTE CARE,,100 SOHIER ST,BROOKLYN,NY,2025,7813833198,40.6552691,-73.91255653,2,21,25,1,43583526,201312,116837,116863
16211201,BROOKLYN HOSPITAL CENTER,CHILDREN'S MUSEUM,,GENERAL ACUTE CARE,,276 GULF ROAD,BROOKLYN,NY,2748,5089933361,40.69057251,-73.97788376,4,5,25,1,,,,
16310461,MONTEFIORE WESTCHESTER SQUARE MEDICAL CENTER,CHILDRENS MUSEUM INC,,GENERAL ACUTE CARE,,25 S WATER ST,BRONX,NY,2740,,40.84074311,-73.84851753,1,5,25,1,46116071,,,
16411203,KINGS COUNTY HOSPITAL CENTER,EASTON CHILDRENS MUSEUM INC,,GENERAL ACUTE CARE,,9 SULLIVAN AVE,BROOKLYN,NY,2356,5082303789,40.65661638,-73.94469079,2,5,25,1,42931832,201312,469834,441047
16611235,CONEY ISLAND HOSPITAL,CHILDRENS MUSEUM OF GREATER FALL RIVER INC,,GENERAL ACUTE CARE,,441 NORTH MAIN STREET,BROOKLYN,NY,2720,5086720033,40.58541438,-73.96533243,1,5,25,1,43552597,201406,192544,181273
16911209,NYU LUTHERAN MEDICAL CENTER,CHILDREN'S MUSEUM OF HOLYOKE,,GENERAL ACUTE CARE,,444 DWIGHT STREET,BROOKLYN,NY,1040,,40.64656399,-74.02091469,2,13,25,1,,,,
15210036,JACOBI MEDICAL CENTER,CHILDRENS MUSEUM OF PLYMUTH INC,,GENERAL ACUTE CARE,,PO BOX 3030,BRONX,NY,2361,5087471234,40.85629836,-73.84751215,2,23,25,1,43196175,,,
17011215,NEW YORK METHODIST HOSPITAL,CHILDRENS MUSEUM OF WILBRAHAM INC,,GENERAL ACUTE CARE,,PO BOX 522,BROOKLYN,NY,1095,4135962472,40.6677617,-73.97899052,4,13,25,1,43366139,201406,0,0
17910003,NYU HOSPITAL FOR JOINT DISEASES,CHILDREN S MUSEUM OF WORCESTER,CHILDREN S MUSEUM OF WORCESTER,GENERAL ACUTE CARE,,54 BEECHING ST,NEW YORK,NY,1602,5089292700,40.73443169,-73.98299996,1,27,25,1,43049334,,,
18610032,NEW YORK PRESBYTERIAN MORGAN STANLEY CHILDREN'S HOSPITAL,CLARA BARTON BIRTHPLACE MUSEUM,,CHILDREN,,66 CLARA BARTON ROAD,NEW YORK,NY,1537,5089872056,40.83976326,-73.94128258,4,27,25,1,,,,
18810019,THE ADDICTION INSTITUTE OF NEW YORK,COFFIN HOUSE MUSEUM,,PSYCHIATRIC,,5 LITTLES LN,NEW YORK,NY,1951,9784622634,40.76941213,-73.9868084,4,9,25,1,,,,
19611373,ELMHURST HOSPITAL CENTER,COL KNOXS ARTILLERY REGIMENT,,GENERAL ACUTE CARE,,3 EUGENIE TER,ELMHURST,NY,1824,9782564451,40.74482736,-73.88607967,2,17,25,1,43234244,201312,0,0
19711414,JAMAICA HOSPITAL MEDICAL CENTER,PRESIDENT AND FELLOWS OF HARVARD COLLEGE,,GENERAL ACUTE CARE,HARVARD UNIVERSITY,1 OXFORD STREET,JAMAICA,NY,2138,6174952779,40.70010365,-73.81611489,1,17,25,1,42103580,201306,83181439574,5840349457
14860942,HOOPESTON COMMUNITY MEMORIAL HOSPITAL,COMM OF MASS FORT DEVENS MUSEUM,,CRITICAL ACCESS,,94 JACKSON ST,HOOPESTON,IL,1432,9787721286,40.45868989,-87.65973327,2,17,25,1,,,,
4761832,OSF HEALTHCARESYSTEM DBA SACRED HEART MEDICAL CENTER,COMM-MASS FORT DEVENS MUSEUM,,GENERAL ACUTE CARE,,94 JACKSON RD,DANVILLE,IL,1434,9787721286,40.13783245,-87.64543324,2,27,25,1,,,,
10942101,THE MEDICAL CENTER AT BOWLING GREEN,CONCORD ART ASSOCIATION,,GENERAL ACUTE CARE,,37 LEXINGTON RD,BOWLING GREEN,KY,1742,9783692578,36.99597151,-86.42975938,2,17,25,1,42275153,201406,1941869,477340
20311355,NEW YORK PRESBYTERIAN QUEENS,CRANE & CO FUND,,GENERAL ACUTE CARE,,HOUSATONIC ST,FLUSHING,NY,1226,4136846380,40.74677228,-73.82541638,2,3,25,1,46057388,201312,350450,
185067037,ROCK REGIONAL HOSPITAL,LLC,FRIENDS OF CROSBY MANSION INC,LONG TERM CARE,CHILDREN,,PO BOX 1888,DERBY,KS,2631,,37.58277168,-97.24698571,2,1,25,1,43174493,201407,0
114511542,GLEN COVE HOSPITAL,CROSSTOWN FOUNDATION FOR THE ARTS INC,,GENERAL ACUTE CARE,,1 NORTH SQUARE,GLEN COVE,NY,2113,6177200100,40.8710014,-73.62238567,1,25,25,1,43519093,201412,0,0
2040484,EPHRAIM MCDOWELL FORT LOGAN HOSPITAL,CUSHING HOUSE MUSEUM,,CRITICAL ACCESS,,98 HIGH ST,STANFORD,KY,1950,9784622681,37.54279432,-84.65303656,2,9,25,1,,,,
4942078,LIVINGSTON HOSPITAL AND HEALTHCARE SERVICES,CYRUS E DALLIN PSYCHIATRIC INC,,CRITICAL ACCESS,,611 MASSACHUSETTS AVENUE,SALEM,KY,2474,7816410747,37.26305319,-88.22850246,2,17,25,1,311717672,201412,0,0
115310802,MONTEFIORE NEW ROCHELLE HOSPITAL,DANFORTH MUSEUM CORP,,GENERAL ACUTE CARE,,123 UNION AVE,NEW ROCHELLE,NY,1702,5086200050,40.91280606,-73.7877626,1,17,25,1,42526917,201308,1549906,1514038
115411234,MOUNT SINAI BETH ISRAEL BROOKLYN,DANFORTH MUSEUM OF ART,,GENERAL ACUTE CARE,FRAMINGHAM STATE UNIVERSITY,123 UNION AVENUE,BROOKLYN,NY,1702,5086200050,40.6188201,-73.94290124,1,17,25,1,46002284,,,
115710605,NEW YORK PRESBYTERIAN HOSPITAL - WESTCHESTER DIVISION,GEORGE PEABODY SOCIETY INC,DANVERS ARCHIVAL CENTER,PSYCHIATRIC,,15 SYLVAN ST,WHITE PLAINS,NY,1923,9787740554,41.02757951,-73.75390988,2,9,25,1,522371094,201406,31083,10739
116710037,HARLEM HOSPITAL CENTER,DARWIN PROJECT INC,,GENERAL ACUTE CARE,,13 ARLINGTON STREET,NEW YORK,NY,2140,,40.81426493,-73.93986126,1,17,25,1,43796418,201412,0,0
116810035,HENRY J. CARTER SPECIALTY HOSPITAL,WELLESLEY COLLEGE,WELLESLEY COLLEGE,LONG TERM CARE,WELLESLEY COLLEGE,106 CENTRAL ST,NEW YORK,NY,2481,,40.80328511,-73.94162385,2,21,25,1,42103637,201306,761881340,1726
116910457,SAINT BARNABAS HOSPITAL HEALTH SYSTEM,DE CORDOVA AND DANA MUSEUM AND PARK,DE CORDOVA AND DANA MUSEUM AND PARK,GENERAL ACUTE CARE,,51 SANDY POND RD,BRONX,NY,1773,7812598355,40.85268901,-73.89136288,4,17,25,1,42067315,201306,7395837,5686770
117114810,IRA DAVENPORT MEMORIAL HOSPITAL INC,DESIGN MUSEUM BOSTON INC,,GENERAL ACUTE CARE,,PO BOX 990938,BATH,NY,2199,,42.3743292,-77.27890663,1,25,25,1,270816164,201312,300963,300963
117412010,ST. MARY'S HEALTHCARE - AMSTERDAM MEMORIAL CAMPUS,DINOSAUR TRACK QUARRY,,GENERAL ACUTE CARE,,116 AMHERST RD,AMSTERDAM,NY,1075,4134679566,42.95906517,-74.18712293,2,,25,1,,,,
117712180,THE BURDETT CARE CENTER,DISCOVERY MUSEUMS INC,DISCOVERY MUSEUMS,WOMEN,,177 MAIN ST,TROY,NY,1720,9782644200,42.73335775,-73.67266608,2,17,25,1,42741645,201312,1936849,1882704
5060450,MORRIS HOSPITAL & HEALTHCARE CENTERS,DOLL E DAZE PROJECT AND MUSEUM INC,,GENERAL ACUTE CARE,,12 COUNTY ST,MORRIS,IL,2048,,41.3693259,-88.42675331,2,5,25,1,205933978,201212,33541,0
10961104,SWEDISH AMERICAN HOSPITAL,DR SEUSS NATIONAL MEMORIAL SCULPTURE GARDEN,,GENERAL ACUTE CARE,,21 EDWARDS ST,ROCKFORD,IL,1103,,42.26567488,-89.07413954,1,13,25,1,,,,
11361103,JAVON BEA HOSPITAL DBA MERCY HEALTH HOSPITAL ROCKTON AVE,FRIENDS OF THE DWIGHT-DERBY HOUSE IN,,GENERAL ACUTE CARE,,PO BOX 527,ROCKFORD,IL,2052,5083596865,42.29842717,-89.09844135,2,21,25,1,43391912,201206,16269,9389
118212901,THE UNIVERSITY OF VERMONT HEALTH NETWORK - CHAMPLAIN VALLEY PHYSICIANS HOSPITAL,DOUGLAS HISTORICAL SOCIETY INC,,GENERAL ACUTE CARE,,283 MAIN STREET,PLATTSBURGH,NY,1516,5084763856,44.70044304,-73.46941987,2,27,25,1,237215310,201409,0,0
118510466,MONTEFIORE MEDICAL CENTER-WAKEFIELD HOSPITAL,EAST LONGMEADOW HIGH SCHOOL ATHLETIC HALL OF FAME,,GENERAL ACUTE CARE,,17 WATERMAN AVE,BRONX,NY,1028,4135255460,40.89369717,-73.86119119,2,13,25,1,271721627,201312,27250,2264
1920910,HOLY CROSS HOSPITAL,EAST TAUNTON BEER CAN MUSEUM,,GENERAL ACUTE CARE,,,SILVER SPRING,MD,2718,,39.01472214,-77.03573523,,,25,1,,,,
10560451,SILVER CROSS HOSPITAL AND MEDICAL CENTERS,EAST WING ART GALLERY,,GENERAL ACUTE CARE,MOUNT WACHUSETT COMMUNITY COLLEGE,444 GREEN ST,NEW LENOX,IL,1440,,41.54468733,-87.98343597,4,27,25,1,46002284,,,
13360440,ADVENTIST BOLINGBROOK HOSPITAL,EASTON CHILDRENS MUSEUM INC,,GENERAL ACUTE CARE,,PO BOX 417,BOLINGBROOK,IL,2356,5082303789,41.68086496,-88.08465144,2,5,25,1,42931832,201312,469834,441047
2520744,FORT WASHINGTON HOSPITAL,ECOTARIUM,,GENERAL ACUTE CARE,,222 HARRINGTON WAY,FORT WASHINGTON,MD,1604,5089292700,38.72856337,-76.99270169,1,27,25,1,,,,
118710025,MOUNT SINAI ST. LUKE'S,EGAN INSTITUTE OF MARITIME,,GENERAL ACUTE CARE,,4 WINTER ST,NEW YORK,NY,2554,5082282505,40.80492254,-73.96159035,3,19,25,1,,,,
118810032,NEW YORK PRESBYTERIAN HOSPITAL - COLUMBIA PRESBYTERIAN CENTER,AMHERST COLLEGE TRUSTEES,,GENERAL ACUTE CARE,AMHERST COLLEGE,280 MAIN STREET,NEW YORK,NY,1002,4135428161,40.84105288,-73.94068652,2,15,25,1,42103542,201306,694033920,356118724
118910021,NEW YORK PRESBYTERIAN HOSPITAL - NEW YORK WEILL CORNELL CENTER,ERIC CARLE MUSEUM OF PICTURE BOOK ART INC,ERIC CARLE MUSEUM OF PICTURE BOOK ART,GENERAL ACUTE CARE,,125 W BAY RD,NEW YORK,NY,1002,4136581100,40.76454994,-73.95433226,2,15,25,1,43542086,201406,2789176,2337678
119511201,NYULMC - COBBLE HILL,ESPIRITO SANTO MUSEUM FOUNDATION INC,,GENERAL ACUTE CARE,,53 SNOW STREET,BROOKLYN,NY,2740,,40.68987342,-73.99776571,1,5,25,1,43583643,201112,0,0
119614420,URMC STRONG WEST,ESSEX INSTITUTE,,GENERAL ACUTE CARE,,132 ESSEX ST,BROCKPORT,NY,1970,9787443390,43.22161178,-77.94457511,2,9,25,1,42104174,,,
120114222,WOMEN AND CHILDREN'S HOSPITAL OF BUFFALO,ESSEX WATERFOUL MUSEUM INC,,CHILDREN,,46 WESTERN AVE,BUFFALO,NY,1929,9787686953,42.90920851,-78.87520901,2,9,25,1,43241419,,,
120511501,NYU WINTHROP-UNIVERSITY HOSPITAL,GREATER BOSTON CHAPTER 106 OF THE EXPERIMENTAL AIRCRAFT ASS,,GENERAL ACUTE CARE,,10 PATCH AVE,MINEOLA,NY,1983,,40.74069748,-73.6430084,2,9,25,1,113781759,201312,0,0
120614701,UPMC CHAUTAUQUA AT WCA,PRESIDENT AND FELLOWS OF HARVARD COLLEGE,,PSYCHIATRIC,HARVARD UNIVERSITY,324 NORTH MAIN STREET,JAMESTOWN,NY,1366,9787243302,42.09116724,-79.24536584,1,17,25,1,42103580,201306,83181439574,5840349457
121310703,SJRH - PARK CARE PAVILION,FITCHBURG PSYCHIATRIC,,PSYCHIATRIC,,25 MERRIAM PKWY,YONKERS,NY,1420,9783454207,40.94038607,-73.89165239,2,27,25,1,46111758,201406,1113101,1113101
10314424,VA MEDICAL CENTER - CANANDAIGUA,PRESIDENT AND FELLOWS OF HARVARD COLLEGE,,MILITARY,HARVARD UNIVERSITY,32 QUINCY STREET,CANANDAIGUA,NY,2138,6174959400,42.90123744,-77.26963606,2,17,25,1,42103580,201306,83181439574,5840349457
25710536,FOUR WINDS HOSPITAL WESTCHESTER,FOREST HILLS EDUCATIONAL TR,,PSYCHIATRIC,,95 FOREST HILLS,KATONAH,NY,2130,6175240128,41.26639132,-73.62071751,1,25,25,1,223182448,201312,148412,148412
25812866,FOUR WINDS HOSPITAL SARATOGA,FORT TABER HISTORICAL ASSO INC,,PSYCHIATRIC,,1000 S RODNEY FRENCH BLVD,SARATOGA SPRINGS,NY,2744,5089943938,43.05813047,-73.78539606,1,5,25,1,237319147,201312,0,0
5842420,METHODIST HOSPITAL,FOUR HUNDRED BEACON CORPORATION,,GENERAL ACUTE CARE,,1125 BOYLSTON ST,HENDERSON,KY,2467,6172789000,37.85497461,-87.58319902,2,21,25,1,208069837,201312,0,0
13062864,CROSSROADS COMMUNITY HOSPITAL,THE FOURTH WALL,,GENERAL ACUTE CARE,,132 BROOKLINE AVE,MOUNT VERNON,IL,2215,6179271737,38.31164516,-88.93688084,4,107,6,6,770134661,201406,0,0
1360504,COPLEY MEMORIAL HOSPITAL INC DBA RUSH COPLEY MEDICAL CENTER,FRAMINGHAM STATE UNIVERSITY PLANETARIUM,,GENERAL ACUTE CARE,FRAMINGHAM STATE UNIVERSITY,100 STATE STREET,AURORA,IL,1701,5086201220,41.72900718,-88.27061598,1,17,25,1,46002284,,,
10460134,DELNOR COMMUNITY HOSPITAL,FRENCH CABLE STATION MUSEUM IN ORLEANS INC,,GENERAL ACUTE CARE,,41 S ORLEANS RD,GENEVA,IL,2653,5082401735,41.88661497,-88.34345036,2,1,25,1,237133747,201412,0,0
8460506,PRESENCE CENTRAL AND SUBURBAN HOSPITALS NETWORK DBA PRESENCE MERCY MEDICAL CENTER,FRUITLANDS MUSEUMS INC,,GENERAL ACUTE CARE,,102 PROSPECT HILL RD,AURORA,IL,1451,9784563924,41.78580955,-88.32576904,4,27,25,1,42125003,201312,1351938,1272319
440383,BLUEGRASS COMMUNITY HOSPITAL,FULLER CRAFT MUSEUM INC,,GENERAL ACUTE CARE,,CO JONATHAN FAIRBANKS,VERSAILLES,KY,2301,5085886000,38.05476569,-84.72378834,2,23,25,1,203069102,201406,768920,758363
10610468,JAMES J. PETERS VA MEDICAL CENTER,FULLER MUSEUM OF ART,FULLER MUSEUM OF ART,MILITARY,,455 OAK ST,BRONX,NY,2301,5085886000,40.86734866,-73.90638209,2,23,25,1,42383776,,,
8476825,HEART OF TEXAS MEMORIAL HOSPITAL,GALLERY 263 INC,,CRITICAL ACCESS,,263 PEARL ST,BRADY,TX,2139,7813930000,31.1176885,-99.34685361,1,17,25,1,263649002,201406,52947,48546
17677957,JACKSON COUNTY HOSPITAL,EMMANUEL COLLEGE,,CRITICAL ACCESS,EMMANUEL COLLEGE,400 THE FENWAY,EDNA,TX,2115,,28.96910475,-96.63588688,1,25,25,1,42105769,201306,119119895,93547912
19176936,SCHLEICHER COUNTY MEDICAL CENTER,LESLEY UNIVERSITY,,CRITICAL ACCESS,LESLEY UNIVERSITY,601 NEWBURY STREET,ELDORADO,TX,2138,,30.86300194,-100.6029941,1,17,25,1,42103589,201306,131608586,128750897
10542718,TAYLOR REGIONAL HOSPITAL,GORDON COLLEGE,,GENERAL ACUTE CARE,GORDON COLLEGE,255 GRAPEVINE RD,CAMPBELLSVILLE,KY,1984,,37.36635176,-85.33810656,2,9,25,1,42104258,201406,90218325,84549848
39179346,COCHRAN MEMORIAL HOSPITAL,LESLEY UNIVERSITY,,CRITICAL ACCESS,LESLEY UNIVERSITY,700 BEACON STREET,MORTON,TX,2138,,33.71973751,-102.7575223,1,17,25,1,42103589,201306,131608586,128750897
4521502,WESTERN MARYLAND REGIONAL MEDICAL CENTER,GALLERY X INC,,GENERAL ACUTE CARE,,169 WILLIAM ST,CUMBERLAND,MD,2740,5089922675,39.64783067,-78.7332415,1,5,25,1,43136128,201312,38223,38223
4621401,ANNE ARUNDEL MEDICAL CENTER,GARDNER MUSEUM INC,,GENERAL ACUTE CARE,,PO BOX 511,ANNAPOLIS,MD,1440,,38.98992672,-76.53461243,1,25,25,1,42630546,201412,52087,52087
1261856,KIRBY MEDICAL CENTER,GENERAL WARD ARTEMUS MUSEUM,,CRITICAL ACCESS,,786 MAIN ST,MONTICELLO,IL,1545,5088428900,40.06044805,-88.5588217,2,27,25,1,,,,
3561603,SAINT FRANCIS MEDICAL CENTER,GENERATIONS AFTER INC,,GENERAL ACUTE CARE,,67 SOUTH BEDFORD STREET 400W,PEORIA,IL,1803,7812295816,40.70274682,-89.59196543,2,17,25,1,43490921,201312,0,0
14762363,BLESSING CARE CORPORATION ILLINI COMMUNITY HOSPITAL,GEORGE A. SMITH MUSEUM-JASON RUSSELL HOUSE,,CRITICAL ACCESS,,7-10 JASON STREET,PITTSFIELD,IL,2174,7816484300,39.60744348,-90.8151327,2,17,25,1,,,,
16674447,MUSCOGEE (CREEK) NATION PHYSICAL REHABILITATION CENTER,GEORGE PEABODY HOUSE MUSEUM,,REHABILITATION,,24 LOWELL STREET,OKMULGEE,OK,1960,9785310355,35.66753235,-95.96033181,1,9,25,1,,,,
962301,BLESSING HOSPITAL,SPRINGFIELD MUSEUMS CORPORATION,,GENERAL ACUTE CARE,,21 EDWARDS ST,QUINCY,IL,1103,,39.93635888,-91.3994572,1,13,25,1,,,,
14573102,VALIR REHABILITATION HOSPITAL OF OKC,GIBSON SOCIETY INC,,REHABILITATION,,137 BEACON STREET,OKLAHOMA CITY,OK,2116,6172676338,35.47489624,-97.52494158,1,25,25,1,42299931,201309,4118,4118
10261603,METHODIST MEDICAL CENTER OF ILLINOIS,GICLEE OF NEW ENGLAND,,GENERAL ACUTE CARE,,1422 MAIN ST,PEORIA,IL,1069,4132844344,40.7003058,-89.59491684,2,13,25,1,,,,
1760611,REHABILITATION INSTITUTE OF CHICAGO,GODINE FAMILY GALLERY,,REHABILITATION,MASSACHUSETTS COLLEGE OF ART AND DESIGN,621 HUNTINGTON AVE,CHICAGO,IL,2115,,41.89545454,-87.6183348,1,25,25,1,46002284,,,
1860130,RIVEREDGE HOSPITAL,GOLDEN BALL TAVERN TRUST,,PSYCHIATRIC,,PO BOX 223,FOREST  PARK,IL,2493,7818941751,41.86489307,-87.82828251,2,17,25,1,46130583,201312,731498,303747
2560076,NORTHSHORE UNIVERSITY HEALTH SYSTEM SKOKIE HOSPITAL,GORE PLACE SOCIETY,,GENERAL ACUTE CARE,,52 GORE ST,SKOKIE,IL,2453,7818942798,42.05641606,-87.74070961,1,17,25,1,42104254,201406,4346743,1152458
3260304,RUSH OAK PARK HOSPITAL,GRAND ARMY MUSEUM,,GENERAL ACUTE CARE,,58 ANDREW ST,OAK PARK,IL,1901,7814777085,41.87861801,-87.80335153,2,9,25,1,,,,
3460525,ADVENTIST MIDWEST HEALTH DBA ADVENTIST LA GRANGE MEMORIAL HOSPITAL,THE GRIFFIN MUSEUM OF PHOTOGRAPHY INC,,GENERAL ACUTE CARE,,67 SHORE RD,LA GRANGE,IL,1890,,41.79706055,-87.88639493,2,17,25,1,43517288,201405,566708,289292
460160,GOTTLEB MEMORIAL HOSPITAL LOYOLA HEALTH SYSTEM AT GOTTLIEB,H L BLANCHARD MUSEUM,,GENERAL ACUTE CARE,,188 MAIN ST,MELROSE PARK,IL,2322,5085837616,41.91052978,-87.84281507,2,21,25,1,,,,
57375494,CHRISTUS MOTHER FRANCES HOSPITAL - WINNSBORO,HADLEY FARM MUSEUM,,CRITICAL ACCESS,,224 RIVER DR,WINNSBORO,TX,1035,2247483737,32.94453832,-95.30727963,2,15,25,1,42312784,201312,0,0
57677995,YOAKUM COMMUNITY HOSPITAL,HALLMARK MUSEUM-CONTEMPORARY,,CRITICAL ACCESS,,85 AVENUE A,YOAKUM,TX,1376,4138630009,29.30695852,-97.12915909,3,11,25,1,,,,
4160644,LORETTO HOSPITAL,HAMILL GALLERY OF AFRICAN ART,,GENERAL ACUTE CARE,,2164 WASHINGTON ST,CHICAGO,IL,2119,6174428204,41.87212457,-87.76408865,1,25,25,1,,,,
4360637,THE UNIVERSITY OF CHICAGO MEDICAL CENTER,HAMMOND MUSEUM INC,,GENERAL ACUTE CARE,,80 HESPERUS AVE,CHICAGO,IL,1930,9782832080,41.78874685,-87.60433713,2,9,25,1,42104270,201312,938856,
137479007,GOLDEN PLAINS COMMUNITY HOSPITAL,HAMPSHIRE COLLEGE TRUSTEES,,CRITICAL ACCESS,HAMPSHIRE COLLEGE,893 WEST STREET,BORGER,TX,1002,4135595378,35.65513819,-101.4091807,2,15,25,1,46130872,201306,89912118,83734297
5560613,THOREK MEMORIAL HOSPITAL,HANDS ON PSYCHIATRIC,,GENERAL ACUTE CARE,,19 SANDERSON RD,CHICAGO,IL,1460,9789522555,41.95518902,-87.65162124,4,17,25,1,43246583,,,
6260612,JOHN H STROGER JR HOSPITAL,HANDSHOUSE STUDIO INC,,GENERAL ACUTE CARE,,8 MEADOW FARM WAY,CHICAGO,IL,2061,7818267314,41.87233487,-87.67439846,4,23,25,1,43715575,201406,135582,
7660616,MERCY HOSPITAL AND MEDICAL CENTER,UNIVERSITY OF MASSACHUSETTS,,GENERAL ACUTE CARE,UNIVERSITY OF MASSACHUSETTS-BOSTON,100 MORRISSEY BOULEVARD,CHICAGO,IL,2125,6172877988,41.84688958,-87.6214916,2,27,25,1,43167352,201306,,
8760805,LITTLE COMPANY OF MARY HOSPITAL,MASSACHUSETTS INSTITUTE OF TECHNOLOGY,,GENERAL ACUTE CARE,MASSACHUSETTS INSTITUTE OF TECHNOLOGY,77 MASSACHUSETTS AVENUE,EVERGREEN PARK,IL,2139,,41.721465,-87.69302888,1,17,25,1,42103594,201306,844590000,139978
9060657,ADVOCATE NORTHSIDE HEALTH NETWORK DBA ILLINOIS MASONIC MEDICAL CENTER,MASSACHUSETTS INSTITUTE OF TECHNOLOGY,,GENERAL ACUTE CARE,MASSACHUSETTS INSTITUTE OF TECHNOLOGY,77 MASSACHUSETTS AVENUE,CHICAGO,IL,2139,,41.93674085,-87.65137166,1,17,25,1,42103594,201306,844590000,139978
9760609,METHODIST HOSPITAL OF CHICAGO,PRESIDENT AND FELLOWS OF HARVARD COLLEGE,,GENERAL ACUTE CARE,HARVARD UNIVERSITY,324 NORTH MAIN STREET,CHICAGO,IL,1366,9787243302,41.97308677,-87.67074306,1,17,25,1,42103580,201306,83181439574,5840349457
10160453,ADVOCATE CHRIST HOSPITAL & MEDICAL CENTER,HARVARD MUSEUM OF NATURAL HISTORY,,GENERAL ACUTE CARE,,26 OXFORD STREET,OAK LAWN,IL,2137,6174953045,41.72169452,-87.73244225,1,17,25,1,,,,
10760068,LUTHERAN GENERAL HOSPITAL ADVOCATE,HARVARD MUSEUMS OF SCIENCE & CULTURE,,GENERAL ACUTE CARE,,26 OXFORD STREET,PARK RIDGE,IL,2138,6174961638,42.03880223,-87.84733438,1,17,25,1,,,,
11860005,NORTHWEST COMMUNITY HOSPITAL,PRESIDENT AND FELLOWS OF HARVARD COLLEGE,,GENERAL ACUTE CARE,HARVARD UNIVERSITY,32 QUINCY STREET,ARLINGTON HEIGHTS,IL,2138,6174959400,42.06829111,-87.99218163,1,17,25,1,42103580,201306,83181439574,5840349457
11960007,ALEXIAN BROTHERS MEDICAL CENTER,PRESIDENT AND FELLOWS OF HARVARD COLLEGE,,GENERAL ACUTE CARE,HARVARD UNIVERSITY,26 OXFORD STREET,ELK GROVE VILLAGE,IL,2138,6174952460,42.00465682,-88.01689228,1,17,25,1,42103580,201306,83181439574,5840349457
12360611,NORTHWESTERN MEMORIAL HOSPITAL,PRESIDENT AND FELLOWS OF HARVARD COLLEGE,,GENERAL ACUTE CARE,HARVARD UNIVERSITY,26 OXFORD STREET,CHICAGO,IL,2138,6174952460,41.89460771,-87.62102437,1,17,25,1,42103580,201306,83181439574,5840349457
12760169,ST ALEXIUS MEDICAL CENTER,PRESIDENT AND FELLOWS OF HARVARD COLLEGE,,GENERAL ACUTE CARE,HARVARD UNIVERSITY,26 OXFORD STREET,HOFFMAN ESTATES,IL,2138,6174952460,42.05292846,-88.14103422,1,17,25,1,42103580,201306,83181439574,5840349457
13160615,PROVIDENT HOSPITAL OF COOK COUNTY,PRESIDENT AND FELLOWS OF HARVARD COLLEGE,,GENERAL ACUTE CARE,HARVARD UNIVERSITY,11 DIVINITY AVENUE,CHICAGO,IL,2138,6174961027,41.80267501,-87.61332387,1,17,25,1,42103580,201306,83181439574,5840349457
8742642,RUSSELL COUNTY HOSPITAL,PRESIDENT AND FELLOWS OF HARVARD COLLEGE,,GENERAL ACUTE CARE,HARVARD UNIVERSITY,60 GARDEN STREET,RUSSELL SPRINGS,KY,2138,6174957463,37.05758045,-85.06735281,1,17,25,1,42103580,201306,83181439574,5840349457
4125801,RALEIGH GENERAL HOSPITAL,HASSANAMISCO INDIAN MUSEUM,,GENERAL ACUTE CARE,,25 MAIN ST,BECKLEY,WV,1560,5088659800,37.7875544,-81.20193159,2,27,25,1,,,,
8640456,ROCKCASTLE REGIONAL HOSPITAL & RESPIRATORY CARE CENTER,HATCH MILL RESTORATION AND PRESERVATION GROUP INC,,GENERAL ACUTE CARE,,125 FURNACE STREET,MT VERNON,KY,2065,,37.35796432,-84.33590332,2,23,25,1,870721770,201312,4400,4400
5821921,UNION HOSPITAL OF CECIL COUNTY,HAVERHILL FIRE FIGHTING MUSEUM INC,,GENERAL ACUTE CARE,,75 KENOZA AVE,ELKTON,MD,1830,9783724061,39.60851453,-75.83196705,2,9,25,1,900118304,201410,0,0
140207,BAPTIST HEALTH LOUISVILLE,MASSACHUSETTS INSTITUTE OF TECHNOLOGY,,GENERAL ACUTE CARE,MASSACHUSETTS INSTITUTE OF TECHNOLOGY,77 MASSACHUSETTS AVENUE,LOUISVILLE,KY,2139,6172531000,38.23811825,-85.6371443,1,17,25,1,42103594,201306,844590000,139978
4040202,JEWISH HOSPITAL & ST. MARY'S HEALTHCARE,ENDICOTT COLLEGE,,GENERAL ACUTE CARE,ENDICOTT COLLEGE,376 HALE STREET,LOUISVILLE,KY,1915,9782322655,38.24913165,-85.7511895,2,9,25,1,42103567,201306,119004816,114978001
4440204,KINDRED HOSPITAL - LOUISVILLE,HELEN BUMPUS GALLERY INC,,LONG TERM CARE,,PO BOX 174,LOUISVILLE,KY,2331,5087465975,38.24265652,-85.73123773,2,23,25,1,43152154,201406,16975,16975
7540205,OUR LADY OF PEACE,HENRY BESTON SOCIETY INC,,PSYCHIATRIC,,PO BOX 407,LOUISVILLE,KY,2651,5082467242,38.218809,-85.71059213,2,,25,1,300088044,201312,48469,46834
11740202,UNIVERSITY OF LOUISVILLE HOSPITAL,HERITAGE PLANTATION OF SANDWICH INC,,GENERAL ACUTE CARE,,67 GROVE ST,LOUISVILLE,KY,2563,5088883300,38.24832296,-85.74433596,2,1,25,1,42704457,201312,5219544,3313318
7941240,PAUL B HALL REGIONAL MEDICAL CENTER,HIGGINS ART GALLERY,,GENERAL ACUTE CARE,CAPE COD COMMUNITY COLLEGE,2240 IYANNOUGH ROAD,PAINTSVILLE,KY,2668,5083622131,37.81551094,-82.8130513,2,1,25,1,46002284,,,
825438,JEFFERSON MEDICAL CENTER,HIGHLAND MUSEUM AND LIGHTSHOUSE INC,,CRITICAL ACCESS,,PO BOX 1123,RANSON,WV,2666,5084871121,39.29598914,-77.85875906,4,,25,1,43408079,201312,236697,180538
3625901,PLATEAU MEDICAL CENTER,BARD COLLEGE,,CRITICAL ACCESS,BARD COLLEGE AT SIMON'S ROCK,84 ALFORD RD,OAK HILL,WV,1230,,37.97127658,-81.14978059,3,27,36,2,141713034,201306,263891112,202883237
3226147,MINNIE HAMILTON HEALTH CARE CENTER,HISTORIC DEERFIELD LIBRARY,,CRITICAL ACCESS,,PO BOX 53,GRANTSVILLE,WV,1342,4137757125,38.92276007,-81.09249296,4,11,25,1,,,,
1825701,ST MARY'S MEDICAL CENTER,FRIENDS OF HISTORIC NEW SALEM INC,,GENERAL ACUTE CARE,,PO BOX 21,HUNTINGTON,WV,1355,9785440278,38.43055045,-82.40041273,4,11,25,1,43368718,201312,1750,
4024740,PRINCETON COMMUNITY HOSPITAL,BISEXUAL RESOURCE CENTER INC,HISTORY PROJECT,GENERAL ACUTE CARE,,29 STANHOPE ST,PRINCETON,WV,2116,6172667733,37.36271893,-81.11301085,1,25,25,1,43072009,201312,0,0
3725550,PLEASANT VALLEY HOSPITAL,HOLYOKE PUBLIC LIBRARY CORP,,GENERAL ACUTE CARE,,335 MAPLE ST,POINT PLEASANT,WV,1040,4135342214,38.86906541,-82.12322387,2,13,25,1,46002895,201306,5897832,1592140
1425130,BOONE MEMORIAL HOSPITAL,HOLYOKE VOLLEYBALL HALL OF FAME INC,,CRITICAL ACCESS,,444 DWIGHT ST,MADISON,WV,1040,4135360926,38.0482,-81.80619,2,13,25,1,42853971,201312,132799,78199
5824924,POCAHONTAS MEMORIAL HOSPITAL,HOUSATONIC RIVER MUSEUM,,CRITICAL ACCESS,,255 NORTH ST,BUCKEYE,WV,1201,4137172166,38.20082912,-80.1089784,1,3,25,1,,,,
3926537,PRESTON MEMORIAL HOSPITAL,HOUSE OF SEVEN GABLES SETTLEMENT ASSOCIATION,,CRITICAL ACCESS,,115 DERBY STREET,KINGWOOD,WV,1970,9787440991,39.46507784,-79.6878575,2,9,25,1,42104324,201312,2351769,1488381
5026452,WILLIAM R SHARPE JR HOSPITAL,HULL LIFESAVING MUSEUM INC,,PSYCHIATRIC,,PO BOX 221,WESTON,WV,2045,7819255433,39.04114927,-80.49630427,2,23,25,1,42738797,201406,889418,883363
188666160,UNIVERSITY OF KANSAS HOSPITAL TRANSPLANT CENTER,EMERSON COLLEGE,,SPECIAL,EMERSON COLLEGE,120 BOYLSTON STREET,KANSAS CITY,KS,2116,,39.0558273,-94.6089825,1,25,25,1,41286950,201306,193527790,188534292
1726201,ST JOSEPH HOSPITAL,HYDE PARK ART ASSOCIATION INC,,CRITICAL ACCESS,,26 CENTRAL AVE,BUCKHANNON,WV,2136,6173642787,38.99141205,-80.2363893,1,25,25,1,10904735,201312,79877,79877
2325401,BERKELEY MEDICAL CENTER,WESTFIELD ATHENAEUM,,GENERAL ACUTE CARE,,6 ESSEX STREET,MARTINSBURG,WV,1840,9786869230,39.47624347,-77.98023718,2,13,25,1,46004372,201406,1102792,1102792
6326506,WEST VIRGINIA UNIVERSITY HOSPITALS,INSTITUTE OF BLACK INVENTION & TECHNOLOGY INC,,GENERAL ACUTE CARE,,8 APPLEWOOD LN,MORGANTOWN,WV,1002,,39.65442257,-79.95802214,1,95,29,4,10811660,201312,9533,9533
1026038,REYNOLDS MEMORIAL HOSPITAL,INSTITUTE OF CONTEMPORARY ART,,GENERAL ACUTE CARE,,100 NORTHERN AVE,GLEN DALE,WV,2210,6174783100,39.94614193,-80.75243755,1,25,25,1,42104327,201406,21454337,18739062
1562401,ST ANTHONYS MEMORIAL HOSPITAL,INTERNATIONAL FISHERIES RESEARCH AND MUSEUM INC,,GENERAL ACUTE CARE,,ROUTE 6A,EFFINGHAM,IL,2631,,39.12577602,-88.55012522,2,1,25,1,222528377,,,
5641056,MEADOWVIEW REGIONAL MEDICAL CENTER,INTERNATIONAL LIFE CAST MUSEUM,,GENERAL ACUTE CARE,,16 NEWMAN WAY,MAYSVILLE,KY,2476,,38.63997438,-83.80810517,2,17,25,1,262688374,201412,23364,23364
10041042,ST. ELIZABETH FLORENCE,INTERNATIONAL MUSEUM OF MILITARY HISTORY,,GENERAL ACUTE CARE,,707 BROOK ST,FLORENCE,KY,2715,,39.01659182,-84.63076721,2,5,25,1,50503539,,,
8140977,PINEVILLE COMMUNITY HOSPITAL,INTERNATIONAL WORLD WAR MUSEUM INC,,GENERAL ACUTE CARE,,PO BOX 1776,PINEVILLE,KY,1247,,36.76291694,-83.70776873,4,3,25,1,10819156,,,
12061282,GENESIS HEALTH SYSTEM DBA GENESIS MEDICAL CENTER - SILVIS,TRUSTEES OF THE COLLEGE OF THE HOLY CROSS,,GENERAL ACUTE CARE,COLLEGE OF THE HOLY CROSS,1 COLLEGE STREET,SILVIS,IL,1610,5087933356,41.49432574,-90.41841611,1,27,25,1,42103558,201306,427848793,213148326
12261201,TRINITY MEDICAL CENTER(WEST) DBA TRINITY ROCK ISLAND,ISABELLA STEWART GARDNER MUSEUM INC,ISABELLA STEWART GARDNER MUSEUM,GENERAL ACUTE CARE,,280 THE FENWAY,ROCK ISLAND,IL,2115,6172785159,41.48261527,-90.57041813,1,25,25,1,42104334,201306,28791598,28162532
7262702,MEMORIAL MEDICAL CENTER,BECKER COLLEGE,,GENERAL ACUTE CARE,BECKER COLLEGE,61 SEVER ST,SPRINGFIELD,IL,1609,5083739529,39.80936884,-89.6557791,1,27,25,1,42108346,201306,55371987,0
2140422,EPHRAIM MCDOWELL REGIONAL MEDICAL CENTER,ARLINGTON HISTORICAL SOCIETY,,GENERAL ACUTE CARE,,7 JASON ST,DANVILLE,KY,2476,7816484300,37.64387331,-84.77300114,2,17,25,1,46053994,201312,185602,
4661801,THE CARLE FOUNDATION HOSPITAL,JASPER RAND PSYCHIATRIC,JASPER RAND PSYCHIATRIC,GENERAL ACUTE CARE,,6 ELM ST,URBANA,IL,1085,,40.11704176,-88.21494866,2,13,25,1,,,,
171954801,SPOONER HOSPITAL SYS,JENNEY HOUSE MUSEUM INC,,GENERAL ACUTE CARE,,48 SUMMER ST,SPOONER,WI,2360,5087474544,45.82559733,-91.89634651,2,23,25,1,900133398,201312,92556,84260
9740033,SPRING VIEW HOSPITAL,JEWISH WOMENS ARCHIVE INC,,GENERAL ACUTE CARE,,ONE HARVARD STREET,LEBANON,KY,2445,6172322258,37.56982888,-85.26145641,2,21,25,1,43293188,201409,1674527,1465680
6342345,OWENSBORO HEALTH MUHLENBERG COMMUNITY HOSPITAL,JOHN F KENNEDY HYANNIS MUSEUM FOUNDATION INC,,GENERAL ACUTE CARE,,PO BOX 2488,GREENVILLE,KY,2601,5087903077,37.19653539,-87.1892945,1,1,25,1,200177247,201312,429295,429295
171613210,HUTCHINGS PSYCHIATRIC CENTER,JOHN F. KENNEDY PRESIDENTIAL LIBRARY AND MUSEUM,,PSYCHIATRIC,,COLUMBIA POINT,SYRACUSE,NY,2125,,43.04519375,-76.14054445,1,25,25,1,,,,
742445,CALDWELL MEDICAL CENTER,MASSACHUSETTS INSTITUTE OF TECHNOLOGY,,CRITICAL ACCESS,MASSACHUSETTS INSTITUTE OF TECHNOLOGY,621 HUNTINGTON AVENUE,PRINCETON,KY,2115,6178797000,37.11367431,-87.90960048,1,17,25,1,42103594,201306,844590000,139978
10442141,T J SAMSON COMMUNITY HOSPITAL,FRIENDS OF THE KEEP HOMESTEAD MUSEUM,,GENERAL ACUTE CARE,,28 ALDRICH RD,GLASGOW,KY,1057,4132674137,37.01139239,-85.90451397,4,13,25,1,43524670,201403,3265,3162
14174820,ROLLING HILLS HOSPITAL,KENDALL WHALING MUSEUM,,PSYCHIATRIC,,27 EVERETT ST,ADA,OK,2067,6177845642,34.78459567,-96.62745078,4,21,25,1,,,,
10973737,FAIRVIEW REGIONAL MEDICAL CENTER,KOUSSEVITZKY ART GALLERY,,CRITICAL ACCESS,BERKSHIRE COMMUNITY COLLEGE,1350 WEST STREET,FAIRVIEW,OK,1201,,36.27598778,-98.47452341,4,3,25,1,46002284,,,
1874578,LATIMER COUNTY GENERAL HOSPITAL,LACHAISE FOUNDATION,,GENERAL ACUTE CARE,,101 FEDERAL ST,WILBURTON,OK,2110,6173427034,34.91947628,-95.32085573,1,,25,1,46113196,201312,356004,
14662644,MASON DISTRICT HOSPITAL,LARZ ANDERSON AUTO MUSEUM,,CRITICAL ACCESS,,15 NEWTON ST,HAVANA,IL,2445,6175226547,40.30542314,-90.0540907,1,21,25,1,,,,
12042240,WESTERN STATE HOSPITAL,ANTIQUE AUTO MUSEUM OF MASS AT LARZ ANDERSON PARK INC,,PSYCHIATRIC,,15 NEWTON ST,HOPKINSVILLE,KY,2445,,36.86466922,-87.45126672,1,21,25,1,42117470,201312,684762,684762
8041501,PIKEVILLE MEDICAL CENTER,LATVIAN DIASPORA MUSEUM FUND INC,,GENERAL ACUTE CARE,,131 LANGDON ST,PIKEVILLE,KY,2458,,37.47124167,-82.5222475,1,17,25,1,10967242,201412,0,0
6973104,OU MEDICAL CENTER -THE CHILDREN'S HOSPITAL,FRIENDS OF THE BERKSHIRE ARTISANS INC,,CHILDREN,,28 RENNE AVE,OKLAHOMA CITY,OK,1201,4134999348,35.48165324,-97.49610501,1,3,25,1,42953961,200912,1,
2057567,HANS P PETERSON MEMORIAL HOSPITAL,MASSACHUSETTS INSTITUTE OF TECHNOLOGY,,CRITICAL ACCESS,MASSACHUSETTS INSTITUTE OF TECHNOLOGY,20 AMES STREET E15,PHILIP,SD,2139,6172534680,44.03980876,-101.6714768,1,17,25,1,42103594,201306,844590000,139978
6474501,MCALESTER REGIONAL HEALTH CENTER,LITTLETON HIGH SCHOOL ATHLETIC HALL OF FAME INC,,GENERAL ACUTE CARE,,PO BOX 933,MCALESTER,OK,1460,,34.93688174,-95.75092529,2,17,25,1,272093792,201406,0,0
3973134,OKLAHOMA SPINE HOSPITAL,LONG PLAIN MUSEUM,,SPECIAL,,1203 MAIN ST,OKLAHOMA CITY,OK,2743,5089617843,35.61450132,-97.5833,2,5,25,1,,,,
7961701,ST JOSEPH MEDICAL CENTER,THE WAYSIDE INN,,GENERAL ACUTE CARE,,WAYSIDE INN ROAD,BLOOMINGTON,IL,1776,9784431776,40.48267659,-88.9555622,2,17,25,1,42105813,201402,5492982,2318340
3341701,HAZARD ARH REGIONAL MEDICAL CENTER,LOWELL ART ASSOCIATION,,GENERAL ACUTE CARE,,243 WORTHEN ST,HAZARD,KY,1852,9784527641,37.27829795,-83.22788224,2,17,25,1,42428837,201406,219742,202910
12341503,TUG VALLEY ARH REGIONAL MEDICAL CENTER,LOWELLS MARITIME FOUNDATION DBA LOWELLS BOAT SHOP,,GENERAL ACUTE CARE,,459 MAIN ST,SOUTH WILLIAMSON,KY,1913,9788340050,37.67651064,-82.29702272,2,9,25,1,61793898,201312,237621,164265
6762526,DECATUR MEMORIAL HOSPITAL,LUPA GAME FARM INC,LUPA GAME FARM,GENERAL ACUTE CARE,,545 WEST ST,DECATUR,IL,1056,4135899883,39.8672534,-88.96098295,4,13,25,1,43323339,201312,430419,391006
5660050,NORTHWESTERN MEDICINE MCHENRY WOODSTOCK HUNTLEY HOSPITAL,LURA WOODSIDE WATKINS MUSEUM,,GENERAL ACUTE CARE,,9 PLEASANT ST,MCHENRY,IL,1949,,42.31779814,-88.279468,2,9,25,1,,,,
6461761,ADVOCATE HEALTH AND HOSPITALS CORPORATION DBA ADVOCATE BROMENN HEALTHCARE,LUTHER STORE,,GENERAL ACUTE CARE,,160 OLD WARREN RD,NORMAL,IL,2777,,40.49697098,-88.99085,2,5,25,1,,,,
1903860,MEMORIAL HOSPITAL,SPRINGFIELD MUSEUMS CORPORATION,,GENERAL ACUTE CARE,,21 EDWARDS ST,NORTH CONWAY,NH,1103,,44.06181269,-71.1368538,1,13,25,1,,,,
803431,CHESHIRE MEDICAL CENTER,LYNN HISTORICAL SOCIETY INC,,GENERAL ACUTE CARE,,125 GREEN ST,KEENE,NH,1902,7815922465,42.9488432,-72.2919009,2,9,25,1,42269520,201312,670010,
1803561,LITTLETON REGIONAL HEALTHCARE,LESLEY UNIVERSITY,,GENERAL ACUTE CARE,LESLEY UNIVERSITY,700 BEACON STREET,LITTLETON,NH,2138,,44.31793388,-71.82555904,1,17,25,1,42103589,201306,131608586,128750897
2903766,ALICE PECK DAY MEMORIAL HOSPITAL,FRIENDS OF THE MALIOTIS CULTURAL CENTER INC,,GENERAL ACUTE CARE,,50 GODDARD AVE,LEBANON,NH,2445,6175222800,43.63844773,-72.28600257,1,25,25,1,42711809,201306,162293,122078
3874344,INTEGRIS GROVE HOSPITAL,MASSACHUSETTS INSTITUTE OF TECHNOLOGY,,GENERAL ACUTE CARE,MASSACHUSETTS INSTITUTE OF TECHNOLOGY,77 MASSACHUSETTS AVENUE,GROVE,OK,2139,,36.58128735,-94.75857669,1,17,25,1,42103594,201306,844590000,139978
1703246,LAKES REGION GENERAL HOSPITAL,MARIA MITCHELL ASSOCIATION,,GENERAL ACUTE CARE,,4 VESTAL STREET,LACONIA,NH,2554,,43.52855555,-71.46318101,3,19,25,1,,,,
6021613,ACH BEHAVIORAL HEALTH AND WELLNESS SERVICES,MARINE MUSEUM AT FALL RIVER INC,,PSYCHIATRIC,,70 WATER ST,CAMBRIDGE,MD,2721,5086743533,38.54945363,-76.05799123,1,5,25,1,42435721,201409,129243,106324
6373702,INTEGRIS BASS BAPTIST HEALTH CENTER,MARION NATURAL HISTORY SOCIETY INC,,GENERAL ACUTE CARE,,8 SPRING ST,ENID,OK,2738,5087482098,36.39016529,-97.88742558,2,23,25,1,46061942,201312,16486,16486
4373521,JACKSON COUNTY MEMORIAL HOSPITAL,MARITIME SOCIETY OF OUR LADY OF HELP OF SCIACCA INC,,GENERAL ACUTE CARE,,PO BOX 130076,ALTUS,OK,2113,,34.63523975,-99.31803877,1,,25,1,43127449,201312,49296,35908
11774462,HASKELL COUNTY COMMUNITY HOSPITAL,LESLEY UNIVERSITY,,CRITICAL ACCESS,LESLEY UNIVERSITY,29 EVERETT STREET,STIGLER,OK,2138,,35.26116507,-95.12875158,1,17,25,1,42103589,201306,131608586,128750897
6160521,ADVENTIST MIDWEST HEALTH DBA ADVENTIST HINSDALE HOSPITAL,MBE LIBRARY,,GENERAL ACUTE CARE,,175 HUNTINGTON AVE,HINSDALE,IL,2115,6174507000,41.80591716,-87.92122132,1,25,25,1,,,,
9860126,ELMHURST MEMORIAL HOSPITAL,THE MARY BAKER EDDY LIBRARY FOR THE BETTERMENT OF HUMANITY,MARY BAKER EDDY LIBRARY BETTLE,GENERAL ACUTE CARE,,200 MASSACHUSETTS AVE,ELMHURST,IL,2115,6174507000,41.86376199,-87.93557914,1,25,25,1,43528638,201304,,
11560190,CENTRAL DUPAGE HOSPITAL,MARY COSGROVE DOLPHIN GALLERY,,GENERAL ACUTE CARE,WORCESTER STATE UNIVERSITY,486 CHANDLER ST,WINFIELD,IL,1602,,41.87352056,-88.1557587,1,27,25,1,42760551,,,
12960139,ADVENTIST GLENOAKS,MARY L. FIFIELD ART GALLERY,,GENERAL ACUTE CARE,BUNKER HILL COMMUNITY COLLEGE,250 NEW RUTHERFORD AVENUE��,GLENDALE HEIGHTS,IL,2129,6172282093,41.9148249,-88.05697653,1,25,25,1,46002284,,,
9773801,ALLIANCEHEALTH WOODWARD,MASHPEE WAMPANOAG INDIAN MUSEUM,,GENERAL ACUTE CARE,,414 MAIN ST,WOODWARD,OK,2649,5084773997,36.43739791,-99.40033722,2,1,25,1,237376761,,,
189541018,SUN BEHAVIORAL HEALTH,MASSACHUSETTS AIR AND SPACE MUSEUM INC,,PSYCHIATRIC,,PO BOX 383,ERLANGER,KY,1730,7813820491,39.038841,-84.594436,2,17,25,1,204897472,201312,26975,26975
7973505,SOUTHWESTERN MEDICAL CENTER,MASSACHUSETTS MUSEUM OF CONTEMPORARY ART FOUNDATION INC,,GENERAL ACUTE CARE,,87 MARSHALL ST NORTH ADAMS,LAWTON,OK,2147,4136622111,34.59263525,-98.46274019,3,3,25,1,43113688,201309,9169801,7912229
13873505,JIM TALIAFERRO COMMUNITY MENTAL HEALTH CENTER,MASSACHUSETTS STATE POLICE MUSEUM AND LEARNING CENTER INC,,PSYCHIATRIC,,470 WORCESTER RD,LAWTON,OK,1702,9789335788,34.60310119,-98.43861928,2,27,25,1,43476924,201312,65963,65963
11074030,DRUMRIGHT REGIONAL HOSPITAL,MATRIARTS INITIATIVE LTD,,CRITICAL ACCESS,,151 WINDSOR STREET 3,DRUMRIGHT,OK,2139,,35.99810679,-96.60596661,1,17,25,1,262464910,201306,0,0
8974074,STILLWATER MEDICAL CENTER,MATTAPOISETT HISTORICAL SOCIETY,,GENERAL ACUTE CARE,,5 CHURCH ST,STILLWATER,OK,2734,5087582844,36.1150111,-97.07510207,2,23,25,1,46130266,201312,12992,12992
1574743,CHOCTAW MEMORIAL HOSPITAL,MAYNARD HIGH SCHOOL ATHLETIC HALL OF FAME INC,,GENERAL ACUTE CARE,,5 NANCY CIR,HUGO,OK,1754,,34.0123721,-95.49665009,2,17,25,1,770657922,201312,11180,11180
3273069,NORMAN SPECIALTY HOSPITAL,BENTLEY UNIVERSITY,,LONG TERM CARE,BENTLEY UNIVERSITY,175 FOREST ST,NORMAN,OK,2452,,35.2323599,-97.46015234,1,17,25,1,41081650,201306,288242323,258082241
1174868,ALLIANCEHEALTH SEMINOLE,MCLA GALLERY 51,,GENERAL ACUTE CARE,MASSACHUSETTS COLLEGE OF LIBERAL ARTS,375 CHURCH ST,SEMINOLE,OK,1247,,35.24497499,-96.69840924,3,3,25,1,46002284,,,
774133,HILLCREST HOSPITAL SOUTH,BOSTON COLLEGE TRUSTEES,MCMULLEN MUSEUM OF ART,GENERAL ACUTE CARE,BOSTON COLLEGE,140 COMMONWEALTH AVENUE,TULSA,OK,2467,6175528587,36.0353155,-95.86355986,2,17,25,1,42103545,201405,1686272257,968788877
874104,HILLCREST MEDICAL CENTER,AMHERST COLLEGE TRUSTEES,,GENERAL ACUTE CARE,AMHERST COLLEGE,41 QUADRANGLE DRIVE,TULSA,OK,1002,4135422335,36.14716118,-95.96851083,2,15,25,1,42103542,201306,694033920,356118724
2873401,MERCY HOSPITAL ARDMORE,MEDFORD-BROOKS ESTATE LAND TR INC,,GENERAL ACUTE CARE,,PO BOX 328,ARDMORE,OK,2155,7813963001,34.18896758,-97.14084275,2,17,25,1,43448138,201312,0,0
12373438,MERCY HOSPITAL HEALDTON,METROPOLITAN WATERWORKS MUSEUM INC,,CRITICAL ACCESS,,2450 BEACON ST,HEALDTON,OK,2467,,34.22286842,-97.49146648,1,25,25,1,43251784,201312,125170,125170
15154904,AURORA MED CTR OSHKOSH,SPRINGFIELD MUSEUMS CORPORATION,,GENERAL ACUTE CARE,,21 EDWARDS ST,OSHKOSH,WI,1103,,44.02774678,-88.59521837,1,13,25,1,,,,
9653024,AURORA MEDICAL CENTER,MILTON PSYCHIATRIC,MILTON PSYCHIATRIC,GENERAL ACUTE CARE,,900 RANDOLPH ST,GRAFTON,WI,2021,7818212222,43.32365209,-87.92817154,2,21,25,1,,,,
13974136,LAUREATE PSYCHIATRIC CLINIC AND HOSPITAL,MASSACHUSETTS INSTITUTE OF TECHNOLOGY,,PSYCHIATRIC,MASSACHUSETTS INSTITUTE OF TECHNOLOGY,265 MASSACHUSETTS AVENUE,TULSA,OK,2139,6172535927,36.06595501,-95.91859307,4,17,25,1,42103594,201306,844590000,139978
574017,HILLCREST HOSPITAL CLAREMORE,MONTSERRAT COLLEGE OF ART INC,,GENERAL ACUTE CARE,MONTSERRAT COLLEGE OF ART,23 ESSEX STREET,CLAREMORE,OK,1915,,36.32264454,-95.60467518,2,9,25,1,521859814,201406,15025686,14421352
3073644,GREAT PLAINS REGIONAL MEDICAL CENTER,TRUSTEES OF MOUNT HOLYOKE COLLEGE,,GENERAL ACUTE CARE,MOUNT HOLYOKE COLLEGE,LOWER LAKE ROAD,ELK CITY,OK,1075,4135382245,35.41398306,-99.42625102,2,15,25,1,42103578,201306,265432204,206477126
9974467,WAGONER COMMUNITY HOSPITAL,MUSEUM AT THE MILL INC,,GENERAL ACUTE CARE,,453 SOUTH MAIN STREET,WAGONER,OK,2703,,35.96152396,-95.3924305,2,5,25,1,371550184,201412,0,0
6454143,AURORA MEDICAL CENTER BAY AREA,MUSEUM FOR DESIGN INCORPORATED,,GENERAL ACUTE CARE,,162 COMMERCIAL STREET,MARINETTE,WI,2109,,45.07196868,-87.61769653,1,25,25,1,222772389,,,
131274447,MUSCOGEE (CREEK) NATION MEDICAL CENTER,MUSEUM OF AFRO AMERICAN HISTORY INC,MUSEUM OF AFRICAN AMERICAN HISTORY  INCORPORATED,GENERAL ACUTE CARE,,14 BEACON ST STE 719,OKMULGEE,OK,2108,6177250022,35.61118802,-95.952485,1,25,25,1,42429556,201312,2038061,2038061
14353066,AURORA MEDICAL CENTER SUMMIT,MUSEUM OF ART MC MULLEN,,GENERAL ACUTE CARE,,140 COMMONWEALTH AVE,SUMMIT,WI,2467,6175528100,43.06591206,-88.46757865,1,17,25,1,,,,
12353083,AURORA SHEBOYGAN MEM MED CTR,MUSEUM OF BAD ART,,GENERAL ACUTE CARE,,55 DAVIS SQ,SHEBOYGAN,WI,2144,7814446757,43.77338685,-87.70999507,2,17,25,1,,,,
5774133,SAINT FRANCIS HOSPITAL SOUTH,MUSEUM OF BROADCAST TECHNOLOGY INC,,GENERAL ACUTE CARE,,115 DUMMER ST,TULSA,OK,2446,,36.03358225,-95.8573201,2,21,25,1,383761261,201412,11658,11658
5973534,DUNCAN REGIONAL HOSPITAL,MUSEUM OF FINE ARTS,MUSEUM OF FINE ARTS,GENERAL ACUTE CARE,,465 HUNTINGTON AVE,DUNCAN,OK,2115,6173693457,34.52031753,-97.975948,1,25,25,1,42103607,201306,289678188,131542555
131174820,MERCY HOSPITAL ADA,MUSEUM OF MADEIRAN HERITAGE,,GENERAL ACUTE CARE,,1 FUNCHAL PL.,ADA,OK,2746,,34.77827025,-96.63336758,1,,25,1,,,,
